"Long","Lat","Stn_Name","Clim_ID","Prov_or_Ter","Tm","DwTm","D","Tx","DwTx","Tn","DwTn","S","DwS","S%N","P","DwP","P%N","S_G","Pd","BS","DwBS","BS%","HDD","CDD"
"-112.967","54.283","ABEE AGDM","3010010","AB","3.4","10","NA","21.5","10","-11.4","10","","","NA","1.6","16","NA","","0","","","NA","292.9","0.0"
"-111.779","52.315","ALLIANCE AGCM","3010162","AB","3.9","11","NA","21.6","11","-13.3","11","","","NA","6.9","11","NA","","2","","","NA","267.4","0.0"
"-112.279","53.917","ANDREW AGDM","3010237","AB","3.6","10","NA","21.1","10","-11.9","10","","","NA","24.1","14","NA","","2","","","NA","288.8","0.0"
"-111.465","52.582","BELLSHILL AGCM","3010650","AB","7.5","21","NA","20.8","21","-4.0","21","","","NA","2.4","21","NA","","1","","","NA","94.5","0.0"
"-110.101","52.124","BODO AGDM","3010730","AB","2.8","10","NA","19.7","10","-20.6","10","","","NA","5.4","10","NA","","3","","","NA","304.0","0.0"
"-114.441","53.089","BRETON PLOTS","3010816","AB","5.2","10","NA","24.2","10","-8.1","10","","","NA","12.8","11","NA","","1","","","NA","255.7","0.0"
"-113.922","53.931","BUSBY AGCM","3010979","AB","5.5","12","NA","23.5","12","-6.3","12","","","NA","10.6","12","NA","","3","","","NA","225.2","0.0"
"-110.510","52.334","CADOGAN AGCM","3010992","AB","3.3","11","NA","20.0","11","-18.2","11","","","NA","6.5","11","NA","","1","","","NA","279.1","0.0"
"-113.863","53.290","CALMAR","3011120","AB","","","","25.0","29","5.0","29","0.0","29","NA","0.0","29","NA","0.0","0","","","NA","",""
"-112.817","53.050","CAMROSE","3011240","AB","4.0","0","-0.5","22.3","0","-8.5","0","","","NA","19.1","0","66.0","","2","","","NA","419.4","0.0"
"-110.713","51.937","CONSORT AGDM","3011815","AB","2.3","11","NA","19.5","11","-18.8","11","","","NA","1.4","11","NA","","1","","","NA","298.5","0.0"
"-111.449","52.074","CORONATION CLIMATE","3011887","AB","1.9","0","NA","21.5","0","-19.4","0","","","NA","6.3","0","NA","","2","","","NA","483.6","0.0"
"-113.903","52.733","CRESTOMERE AGCM","3011892","AB","4.7","11","NA","24.3","11","-8.4","11","","","NA","12.2","12","NA","","1","","","NA","253.0","0.0"
"-113.176","52.183","DELBURNE AGCM","3012050","AB","4.9","11","NA","23.2","11","-10.6","11","","","NA","6.0","11","NA","","3","","","NA","249.0","0.0"
"-110.588","53.659","DEWBERRY AGCM","3012073","AB","3.2","11","NA","19.5","11","-16.5","11","","","NA","12.2","11","NA","","2","","","NA","281.0","0.0"
"-110.433","52.778","EDGERTON AGCM","3012192","AB","3.4","11","NA","20.1","11","-19.3","11","","","NA","13.6","11","NA","","2","","","NA","276.6","0.0"
"-113.606","53.307","EDMONTON INTERNATIONAL CS","3012206","AB","4.5","0","NA","24.2","0","-8.4","0","","","NA","16.0","0","NA","","2","","","NA","404.8","0.0"
"-113.517","53.573","EDMONTON BLATCHFORD","3012209","AB","6.0","0","NA","23.7","0","-4.7","0","","","NA","13.8","0","NA","","3","","","NA","361.5","0.0"
"-113.579","53.310","EDMONTON INTL A","3012216","AB","4.5","0","NA","24.0","0","-8.1","0","10.6","0","NA","15.7","0","NA","","2","","","NA","404.6","0.0"
"-113.538","53.490","EDMONTON SOUTH CAMPUS","3012220","AB","6.7","12","NA","24.4","12","-5.2","12","","","NA","17.7","12","NA","","2","","","NA","203.7","0.0"
"-113.856","53.668","EDMONTON VILLENEUVE A","3012229","AB","4.9","0","NA","23.9","0","-10.1","0","","","NA","12.4","0","NA","","3","","","NA","391.8","0.0"
"-114.108","53.548","EDMONTON STONY PLAIN","301222F","AB","5.6","0","0.6","24.5","0","-9.5","0","1.4","0","11.0","15.2","0","55.0","0.0","5","","","NA","373.0","0.0"
"-112.868","53.683","ELK ISLAND NAT PARK","3012275","AB","4.1","0","-0.2","19.8","0","-9.1","0","","","NA","23.8","0","91.0","","6","","","NA","417.9","0.0"
"-111.000","52.967","FABYAN","3012515","AB","2.5","0","-1.5","19.5","0","-16.5","0","2.6","0","26.0","23.0","0","85.0","0.0","5","","","NA","465.5","0.0"
"-112.858","52.744","FERINTOSH AGCM","3012590","AB","4.4","11","NA","22.8","11","-10.0","11","","","NA","22.5","11","NA","","2","","","NA","258.0","0.0"
"-111.813","52.041","FLEET AGCM","3012635","AB","2.6","11","NA","21.2","11","-19.1","11","","","NA","6.0","11","NA","","1","","","NA","292.1","0.0"
"-112.120","52.467","FORESTBURG PLANT SITE","3012652","AB","5.7","15","-0.1","22.0","11","-11.0","15","0.2","3","NA","16.0","3","NA","0.0","4","","","NA","185.0","0.0"
"-112.123","52.548","FORESTBURG AGCM","3012653","AB","4.4","11","NA","22.8","11","-12.1","11","","","NA","11.5","12","NA","","2","","","NA","257.9","0.0"
"-113.183","53.717","FORT SASKATCHEWAN","3012710","AB","","","","","","-7.0","4","0.0","4","NA","10.3","4","NA","0.0","3","","","NA","",""
"-110.621","53.071","GILT EDGE NORTH AGCM","3012790","AB","4.1","11","NA","19.4","11","-14.6","11","","","NA","11.7","11","NA","","2","","","NA","264.7","0.0"
"-114.320","53.295","ST. FRANCIS","3012799","AB","6.2","13","NA","23.8","13","-5.1","13","","","NA","14.8","13","NA","","3","","","NA","201.4","0.0"
"-112.278","52.987","GLADSTONE AGCM","3012810","AB","3.8","11","NA","21.5","11","-12.8","11","","","NA","46.5","14","NA","","2","","","NA","270.2","0.0"
"-114.539","53.833","GLENEVIS AGCM","3012818","AB","6.5","11","NA","23.3","11","-6.9","11","","","NA","","","NA","","","","","NA","218.2","0.0"
"-110.803","52.113","GOOSEBERRY LAKE AGCM","3012871","AB","1.9","11","NA","20.0","11","-22.0","11","","","NA","5.0","11","NA","","1","","","NA","306.7","0.0"
"-112.164","52.116","HALKIRK AGCM","3012999","AB","3.2","11","NA","21.6","11","-15.7","11","","","NA","4.7","12","NA","","1","","","NA","282.0","0.0"
"-111.212","51.780","HEMARUKA AGCM","3013140","AB","2.6","11","NA","21.1","11","-19.7","11","","","NA","1.6","11","NA","","1","","","NA","291.9","0.0"
"-112.246","53.185","HOLDEN AGDM","3013340","AB","3.8","11","NA","21.5","11","-12.7","11","","","NA","43.9","17","NA","","2","","","NA","270.3","0.0"
"-110.784","52.578","HUGHENDEN AGCM","3013362","AB","3.5","11","NA","19.9","11","-17.9","11","","","NA","12.7","11","NA","","2","","","NA","276.3","0.0"
"-111.872","52.848","KILLAM AGDM","3013640","AB","3.7","11","NA","21.6","11","-15.1","11","","","NA","","","NA","","","","","NA","271.4","0.0"
"-111.113","52.290","KESSLER AGCM","3013644","AB","3.7","11","NA","20.4","11","-17.9","11","","","NA","","","NA","","","","","NA","272.4","0.0"
"-111.548","53.047","KINSELLA RESEARC STATION","3013647","AB","3.4","12","NA","20.7","12","-13.8","12","","","NA","17.9","12","NA","","2","","","NA","262.5","0.0"
"-110.416","53.353","KITSCOTY AGCM","3013660","AB","3.3","11","NA","18.3","11","-15.3","11","","","NA","13.1","11","NA","","2","","","NA","278.6","0.0"
"-113.474","54.003","LEGAL AGCM","3013790","AB","5.2","11","NA","22.8","11","-7.3","11","","","NA","6.0","11","NA","","2","","","NA","242.6","0.0"
"-110.579","53.943","LINDBERGH AGDM","3013921","AB","2.6","11","NA","18.5","11","-15.1","11","","","NA","12.9","11","NA","","3","","","NA","292.6","0.0"
"-110.073","53.309","LLOYDMINSTER","3013959","AB","2.4","1","NA","18.5","1","-18.2","1","","","NA","11.6","1","NA","","3","","","NA","452.9","0.0"
"-110.073","53.309","LLOYDMINSTER A","3013961","AB","2.3","0","-1.6","17.5","0","-18.0","0","6.2","0","46.0","13.4","0","51.0","0.0","5","","","NA","470.3","0.0"
"-111.255","53.456","MANNVILLE AGCM","3014195","AB","3.8","12","NA","20.0","12","-13.9","12","","","NA","11.6","13","NA","","2","","","NA","255.8","0.0"
"-110.550","52.017","MONITOR","3014600","AB","","","NA","","","","","3.8","0","56.0","9.2","0","40.0","0.0","4","","","NA","",""
"-113.165","53.262","NEW SAREPTA AGCM","3014795","AB","4.4","12","NA","22.4","12","-9.5","12","","","NA","24.2","12","NA","","2","","","NA","245.2","0.0"
"-113.350","53.650","OLIVER AGDM","3014921","AB","5.6","12","NA","24.0","12","-6.7","12","","","NA","","","NA","","","","","NA","223.3","0.0"
"-111.726","53.425","RANFURLY AUTO","3015401","AB","3.8","0","NA","21.0","0","-12.7","0","","","NA","23.0","0","NA","","4","","","NA","425.6","0.0"
"-110.343","52.587","RIBSTONE SOUTH AGCM","3015480","AB","2.2","12","NA","19.2","12","-19.7","12","","","NA","10.1","12","NA","","1","","","NA","284.4","0.0"
"-110.102","53.019","RIVERCOURSE AGCM","3015501","AB","2.6","12","NA","17.8","12","-18.0","12","","","NA","13.9","12","NA","","2","","","NA","276.8","0.0"
"-114.912","52.421","ROCKY MTN HOUSE (AUT)","3015523","AB","3.3","0","NA","24.4","0","-12.4","0","","","NA","7.2","0","NA","","2","","","NA","442.2","0.0"
"-112.422","52.792","ROSALIND AGCM","3015600","AB","4.6","12","NA","22.5","12","-10.0","12","","","NA","32.4","14","NA","","2","","","NA","242.1","0.0"
"-111.453","54.282","ST. LINA AGCM","3015673","AB","3.5","12","NA","19.3","12","-13.7","12","","","NA","15.3","19","NA","","2","","","NA","260.3","0.0"
"-111.272","54.011","ST. PAUL AGCM","3015676","AB","3.1","12","NA","19.0","12","-12.5","12","","","NA","12.5","12","NA","","3","","","NA","268.3","0.0"
"-110.755","51.590","SEDALIA AGCM","3015797","AB","2.7","12","NA","21.0","12","-21.1","12","","","NA","1.5","17","NA","","0","","","NA","275.7","0.0"
"-112.539","53.333","SHONTS AGCM","3015900","AB","3.8","12","NA","22.1","12","-10.5","12","","","NA","42.2","12","NA","","2","","","NA","255.1","0.0"
"-112.499","54.278","SMOKY LAKE AGDM","3016022","AB","4.3","12","NA","20.6","12","-9.0","12","","","NA","11.0","12","NA","","2","","","NA","246.3","0.0"
"-111.683","51.816","SPONDIN AGCM","3016070","AB","2.4","12","NA","21.9","12","-18.6","12","","","NA","4.3","27","NA","","1","","","NA","280.7","0.0"
"-112.596","52.347","STETTLER AGDM","3016124","AB","4.6","12","NA","23.3","12","-12.0","12","","","NA","6.1","18","NA","","1","","","NA","241.4","0.0"
"-113.895","53.217","THORSBY AGCM","3016441","AB","5.5","12","NA","24.3","12","-7.4","12","","","NA","14.6","12","NA","","1","","","NA","224.8","0.0"
"-114.718","53.439","TOMAHAWK AGDM","3016505","AB","6.0","12","NA","24.3","12","-6.5","12","","","NA","15.7","17","NA","","2","","","NA","216.7","0.0"
"-110.081","53.664","TULLIBY LAKE AGCM","3016593","AB","3.0","12","NA","18.4","12","-16.0","12","","","NA","13.5","13","NA","","3","","","NA","269.5","0.0"
"-113.033","53.500","UNCAS","3016650","AB","","","NA","","","","","4.6","0","NA","23.0","0","NA","0.0","4","","","NA","",""
"-111.678","53.625","TWO HILLS AGDM","3016655","AB","4.4","10","NA","20.7","10","-11.2","10","","","NA","17.1","11","NA","","3","","","NA","271.6","0.0"
"-110.882","53.344","VERMILION AGDM","3016802","AB","3.6","12","NA","19.4","12","-14.2","12","","","NA","14.9","12","NA","","2","","","NA","259.5","0.0"
"-111.732","53.182","VIKING AGCM","3016841","AB","3.7","12","NA","21.0","12","-13.9","12","","","NA","14.1","12","NA","","2","","","NA","257.8","0.0"
"-111.921","54.130","VILNA AGCM","3016852","AB","3.6","12","NA","20.4","12","-12.6","12","","","NA","10.0","14","NA","","2","","","NA","259.0","0.0"
"-112.098","53.505","VEGREVILLE","3016GF0","AB","3.5","0","-0.7","21.5","0","-11.8","0","","","NA","24.4","0","115.0","","3","","","NA","434.0","0.0"
"-113.444","52.980","WETASKIWIN AGCM","3017282","AB","4.8","12","NA","23.2","12","-8.4","12","","","NA","21.9","15","NA","","3","","","NA","237.4","0.0"
"-111.224","51.491","YOUNGSTOWN AGCM","3017705","AB","2.9","12","NA","21.6","12","-18.9","12","","","NA","0.5","12","NA","","0","","","NA","272.0","0.0"
"-114.108","53.547","EDMONTON STONY PLAIN CS","301A001","AB","5.8","0","NA","24.1","0","-5.9","0","","","NA","16.9","0","NA","","3","","","NA","366.8","0.0"
"-110.206","51.670","ESTHER 1","301B460","AB","1.5","0","NA","20.3","0","-24.0","0","","","NA","2.4","0","NA","0.0","0","","","NA","495.3","0.0"
"-111.096","52.829","WAINWRIGHT CFB AIRFIELD 21","301S001","AB","3.4","0","NA","20.4","0","-15.3","0","","","NA","17.3","0","NA","","3","","","NA","436.8","0.0"
"-113.821","54.308","PIBROCH AGCM","301X001","AB","4.5","12","NA","23.9","12","-7.2","12","","","NA","2.4","14","NA","0.0","1","","","NA","242.2","0.0"
"-110.317","51.066","ACADIA VALLEY","3020035","AB","3.8","10","NA","21.7","10","-19.9","10","","","NA","2.0","14","NA","","1","","","NA","283.3","0.0"
"-111.006","50.810","ATLEE AGCM","3020405","AB","4.9","11","NA","22.8","11","-16.4","11","","","NA","1.3","12","NA","","0","","","NA","248.5","0.0"
"-113.357","51.379","BEISEKER AGCM","3020610","AB","3.5","10","NA","24.4","10","-15.3","10","","","NA","5.2","10","NA","","1","","","NA","290.0","0.0"
"-112.803","51.998","BIG VALLEY AGCM","3020679","AB","4.8","10","NA","22.9","10","-11.9","10","","","NA","1.3","10","NA","","0","","","NA","264.2","0.0"
"-110.686","50.798","BUFFALO AGCM","3020950","AB","5.3","10","NA","23.0","10","-14.9","10","","","NA","1.4","10","NA","","0","","","NA","254.8","0.0"
"-111.221","51.024","CABIN LAKE AGCM","3021000","AB","4.2","11","NA","23.3","11","-17.8","11","","","NA","","","NA","","","","","NA","262.8","0.0"
"-110.797","51.067","CAPPON","3021200","AB","4.0","11","NA","22.3","11","-19.3","11","","","NA","2.6","13","NA","","1","","","NA","266.2","0.0"
"-110.824","51.276","CEREAL AGCM","3021463","AB","3.4","11","NA","22.2","11","-20.5","11","","","NA","3.4","14","NA","","2","","","NA","277.8","0.0"
"-112.252","51.775","CRAIGMYLE AGCM","3021912","AB","4.2","12","NA","22.6","12","-15.8","12","","","NA","3.0","13","NA","","1","","","NA","247.8","0.0"
"-112.677","51.445","DRUMHELLER EAST","30221LG","AB","5.8","0","NA","25.6","0","-10.5","0","","","NA","7.5","0","NA","0.0","1","","","NA","365.9","0.0"
"-112.097","51.053","FINNEGAN AGCM","3022650","AB","4.1","11","NA","24.4","11","-15.2","11","","","NA","","","NA","","","","","NA","263.7","0.0"
"-112.135","51.453","HAND HILLS AGCM","3022990","AB","3.4","11","NA","21.9","11","-14.6","11","","","NA","3.7","11","NA","","1","","","NA","276.9","0.0"
"-114.486","52.310","HESPERO AGCM","3023200","AB","3.4","11","NA","24.4","11","-13.6","11","","","NA","5.6","11","NA","","1","","","NA","277.8","0.0"
"-112.500","51.183","HUSSAR AGDM","3023402","AB","4.1","11","NA","22.9","11","-13.3","11","","","NA","7.9","11","NA","","2","","","NA","264.0","0.0"
"-110.359","51.913","KIRRIEMUIR AGCM","3023660","AB","2.6","11","NA","19.9","11","-20.8","11","","","NA","2.3","18","NA","","0","","","NA","291.7","0.0"
"-113.756","52.449","LACOMBE CDA 2","3023722","AB","4.1","0","NA","24.4","0","-9.9","0","","","NA","14.1","0","NA","","1","","","NA","417.1","0.0"
"-114.473","52.553","LEEDALE AGDM","3023740","AB","3.3","11","NA","24.2","11","-11.3","11","","","NA","6.3","11","NA","","1","","","NA","278.9","0.0"
"-113.656","51.619","LINDEN AGCM","3023850","AB","3.6","11","NA","24.3","11","-12.4","11","","","NA","5.2","12","NA","","1","","","NA","272.9","0.0"
"-110.341","49.458","LODGE CREEK","3023900","AB","2.8","11","NA","19.6","11","-13.9","11","","","NA","6.0","12","NA","","2","","","NA","289.7","0.0"
"-112.675","51.660","MORRIN AGDM","3024668","AB","4.5","11","NA","23.9","11","-12.6","11","","","NA","2.2","11","NA","","1","","","NA","256.6","0.0"
"-114.085","51.759","OLDS AGDM","3024925","AB","3.2","12","NA","23.7","12","-12.8","12","","","NA","3.2","12","NA","","1","","","NA","266.7","0.0"
"-110.350","51.383","OYEN AGDM","3024965","AB","2.4","12","NA","21.0","12","-18.8","12","","","NA","0.0","12","NA","0.0","0","","","NA","281.5","0.0"
"-111.621","50.740","PATRICIA AGCM","3025013","AB","5.7","12","NA","24.8","12","-12.6","12","","","NA","0.4","14","NA","","0","","","NA","222.2","0.0"
"-111.705","51.125","POLLOCKVILLE AGDM","3025243","AB","3.3","12","NA","24.3","12","-17.9","12","","","NA","0.4","12","NA","","0","","","NA","265.0","0.0"
"-113.600","52.433","PRENTISS","3025297","AB","3.9","0","NA","23.6","0","-9.8","0","","","NA","14.3","6","NA","","3","","","NA","423.1","0.0"
"-113.894","52.182","RED DEER REGIONAL A","3025484","AB","3.2","1","NA","21.3","1","-11.6","1","","","NA","5.1","1","NA","","1","","","NA","428.8","0.0"
"-113.620","53.692","ST. ALBERT RESEARCH STATION","3025750","AB","4.7","0","NA","23.9","0","-7.3","0","","","NA","10.0","0","NA","","1","","","NA","399.6","0.0"
"-110.091","50.307","SCHULER AGDM","3025768","AB","4.6","12","NA","22.0","12","-16.0","12","","","NA","1.1","14","NA","","0","","","NA","241.4","0.0"
"-111.646","51.463","SHEERNESS AGCM","3025890","AB","3.4","12","NA","21.9","12","-15.8","12","","","NA","0.8","12","NA","","0","","","NA","262.3","0.0"
"-111.388","51.301","SUNNYNOOK AGCM","3026264","AB","2.9","12","NA","22.7","12","-20.1","12","","","NA","0.0","13","NA","","0","","","NA","272.4","0.0"
"-113.206","51.768","THREE HILLS","3026479","AB","3.9","10","NA","24.4","10","-12.5","10","","","NA","2.7","10","NA","","1","","","NA","282.1","0.0"
"-111.955","50.895","VERGER","3026800","AB","4.2","12","NA","24.7","12","-16.2","12","","","NA","0.0","13","NA","","0","","","NA","248.2","0.0"
"-114.683","51.778","SUNDRE A","3026KNQ","AB","2.8","0","NA","24.0","0","-14.1","0","","","NA","","","NA","","","","","NA","457.3","0.0"
"-113.591","51.936","WIMBORNE AGCM","3027582","AB","3.5","12","NA","24.2","12","-11.3","12","","","NA","0.5","12","NA","","0","","","NA","260.4","0.0"
"-113.434","49.528","ARDENVILLE","3030200","AB","5.8","10","NA","25.4","10","-12.3","10","","","NA","6.0","12","NA","","2","","","NA","244.6","0.0"
"-114.013","50.512","AZURE","3030450","AB","5.3","10","NA","24.1","10","-9.5","10","","","NA","7.8","12","NA","","2","","","NA","254.3","0.0"
"-112.300","49.800","BARNWELL AGDM","3030525","AB","6.5","10","NA","26.7","10","-10.7","10","","","NA","2.7","10","NA","","2","","","NA","230.8","0.0"
"-113.224","50.026","BARONS AGCM","3030529","AB","5.5","10","NA","25.5","10","-10.4","10","","","NA","6.4","12","NA","","3","","","NA","250.9","0.0"
"-112.465","50.893","BASSANO AGCM","3030540","AB","4.9","10","NA","24.2","10","-12.8","10","","","NA","2.8","10","NA","","1","","","NA","262.3","0.0"
"-114.152","50.707","BLACK DIAMOND","3030680","AB","4.1","10","NA","24.6","10","-11.5","10","","","NA","5.0","13","NA","","1","","","NA","277.3","0.0"
"-113.640","50.546","BLACKIE AGCM","3030690","AB","4.7","10","NA","25.2","10","-12.3","10","","","NA","3.1","15","NA","","1","","","NA","265.7","0.0"
"-113.050","49.567","BLOOD TRIBE AGDM","3030720","AB","5.3","10","NA","26.1","10","-9.8","10","","","NA","3.2","18","NA","","2","","","NA","254.4","0.0"
"-111.450","49.734","BOW ISLAND","3030768","AB","4.7","0","NA","24.3","0","-12.5","0","","","NA","18.0","0","NA","","3","","","NA","398.0","0.0"
"-113.817","49.617","BROCKET AGDM","3030830","AB","","","NA","","","","","","","NA","4.1","11","NA","","2","","","NA","",""
"-110.484","50.339","BULL SPRINGS AGCM","3030879","AB","6.3","10","NA","23.1","10","-12.7","10","","","NA","1.5","14","NA","","1","","","NA","234.8","0.0"
"-111.849","50.555","BROOKS","3030QLP","AB","5.0","0","NA","25.9","0","-11.4","0","","","NA","9.0","0","NA","","3","","","NA","390.8","0.0"
"-114.013","51.123","CALGARY INTL A","3031092","AB","4.7","0","NA","24.1","0","-8.7","0","3.7","0","NA","6.1","0","NA","","3","","","NA","398.5","0.0"
"-114.000","51.109","CALGARY INT'L CS","3031094","AB","4.3","0","NA","23.8","0","-9.3","0","","","NA","6.3","0","NA","","1","","","NA","410.3","0.0"
"-114.371","51.105","CALGARY SPRINGBANK A","3031109","AB","2.8","1","NA","23.5","1","-12.8","1","","","NA","45.7","18","NA","","12","","","NA","442.0","0.0"
"-113.286","49.201","CARDSTON","3031322","AB","5.8","4","NA","25.3","4","-8.3","4","","","NA","20.1","4","NA","","4","","","NA","316.8","0.0"
"-113.376","49.001","CARWAY","3031402","AB","3.2","8","NA","21.6","8","-11.4","8","","","NA","17.5","8","NA","","4","","","NA","326.5","0.0"
"-113.350","50.282","CHAMPION AGDM","3031480","AB","5.0","11","NA","24.9","11","-9.1","11","","","NA","3.3","12","NA","","1","","","NA","246.2","0.0"
"-113.639","50.004","CLARESHOLM","3031640","AB","4.9","0","NA","25.8","0","-10.7","0","","","NA","12.6","0","NA","","5","","","NA","392.2","0.0"
"-114.222","51.076","COP UPPER","3031875","AB","4.9","0","NA","24.0","0","-10.2","0","","","NA","3.3","0","NA","","1","","","NA","394.0","0.0"
"-112.433","50.183","ENCHANT AGDM","3032422","AB","5.5","11","NA","25.6","11","-11.5","11","","","NA","2.3","11","NA","","2","","","NA","237.1","0.0"
"-112.033","49.800","FINCASTLE AGDM","3032550","AB","6.9","11","NA","26.3","11","-9.3","11","","","NA","1.8","14","NA","","0","","","NA","211.1","0.0"
"-111.486","49.483","FOREMOST AGDM","3032642","AB","4.7","11","NA","23.9","11","-14.3","11","","","NA","2.3","12","NA","","1","","","NA","251.8","0.0"
"-113.379","49.786","FORT MACLEOD AGCM","3032683","AB","5.7","11","NA","26.2","11","-9.9","11","","","NA","2.2","12","NA","","1","","","NA","234.6","0.0"
"-112.941","50.934","GLEICHEN AGCM","3032801","AB","4.3","11","NA","24.6","11","-14.7","11","","","NA","2.9","12","NA","","1","","","NA","259.4","0.0"
"-111.733","49.874","GRASSY LAKE","3032927","AB","6.3","11","NA","24.7","11","-9.9","11","","","NA","1.3","11","NA","","1","","","NA","221.8","0.0"
"-112.733","49.900","IRON SPRINGS AGDM","3033498","AB","5.9","11","NA","26.6","11","-11.1","11","","","NA","2.0","12","NA","","1","","","NA","229.8","0.0"
"-114.292","50.869","PRIDDIS OBSERVATORY","3033505","AB","4.1","0","NA","23.3","0","-11.1","0","","","NA","5.8","0","NA","","2","","","NA","415.7","0.0"
"-110.261","49.989","IRVINE AGCM","3033550","AB","6.9","11","NA","22.8","11","-10.8","11","","","NA","2.0","11","NA","","1","","","NA","211.1","0.0"
"-113.631","51.191","KEOMA AGCM","3033620","AB","3.3","11","NA","24.7","11","-12.6","11","","","NA","6.1","19","NA","","1","","","NA","279.0","0.0"
"-112.299","50.600","LATHOM AGCM","3033770","AB","5.6","11","NA","24.1","11","-9.2","11","","","NA","0.9","17","NA","","0","","","NA","235.8","0.0"
"-112.799","49.630","LETHBRIDGE","3033875","AB","5.0","0","NA","25.7","0","-10.1","0","","","NA","7.6","0","NA","","2","","","NA","389.1","0.0"
"-112.763","49.647","LETHBRIDGE AGTECH AGCM","3033877","AB","6.3","10","NA","26.5","10","-9.8","10","","","NA","3.5","14","NA","","2","","","NA","234.5","0.0"
"-112.768","49.695","LETHBRIDGE CDA","3033890","AB","5.7","0","NA","26.5","0","-10.2","0","","","NA","","","NA","","","","","NA","368.2","0.0"
"-112.783","49.700","LETHBRIDGE CDA 2","3033892","AB","","","NA","","","","","7.0","12","NA","7.0","12","NA","","2","","","NA","",""
"-112.750","49.683","LETHBRIDGE DEMO FARM AGDM","3033897","AB","6.3","11","NA","26.6","11","-10.2","11","","","NA","1.6","20","NA","","0","","","NA","221.4","0.0"
"-110.721","50.019","MEDICINE HAT","3034479","AB","5.4","1","NA","24.9","1","-10.4","1","","","NA","6.7","2","NA","","3","","","NA","364.9","0.0"
"-110.717","50.025","MEDICINE HAT RCS","3034485","AB","5.8","0","NA","24.8","0","-10.3","0","","","NA","4.2","27","NA","","2","","","NA","367.4","0.0"
"-113.349","50.673","MOSSLEIGH AGCM","3034577","AB","4.9","11","NA","25.7","11","-11.6","11","","","NA","5.0","11","NA","","1","","","NA","249.2","0.0"
"-114.099","51.369","NIER AGDM","3034795","AB","4.4","12","NA","23.5","12","-9.7","12","","","NA","2.2","14","NA","","1","","","NA","245.3","0.0"
"-113.997","49.521","PINCHER CREEK","3035198","AB","4.6","2","NA","25.4","2","-10.5","2","","","NA","15.3","0","NA","","5","","","NA","375.2","0.0"
"-114.005","49.522","PINCHER CREEK CLIMATE","3035208","AB","4.3","0","NA","25.2","0","-10.4","0","","","NA","19.2","0","NA","","6","","","NA","409.7","0.0"
"-112.983","50.606","QUEENSTOWN","3035340","AB","4.8","0","-0.6","24.0","0","-10.5","0","7.0","0","49.0","11.4","0","37.0","0.0","5","","","NA","396.4","0.0"
"-112.803","50.598","QUEENSTOWN","3035342","AB","4.9","0","NA","25.2","0","-8.7","0","","","NA","13.1","0","NA","","3","","","NA","392.9","0.0"
"-112.117","50.367","RAINIER AGCM","3035355","AB","6.0","12","NA","24.8","12","-8.7","12","","","NA","2.3","12","NA","","1","","","NA","215.6","0.0"
"-111.213","50.099","RALSTON AGCM","3035362","AB","6.5","12","NA","24.2","12","-10.2","12","","","NA","0.5","14","NA","","0","","","NA","206.7","0.0"
"-112.683","49.483","RAYMOND AGDM","3035422","AB","6.2","12","NA","25.8","12","-8.7","12","","","NA","1.0","13","NA","","0","","","NA","213.0","0.0"
"-111.701","50.265","ROLLING HILLS AGCM","3035530","AB","5.7","12","NA","24.9","12","-10.7","12","","","NA","2.0","21","NA","","1","","","NA","221.3","0.0"
"-112.050","50.833","ROSEMARY AGDM","3035650","AB","4.2","12","NA","25.3","12","-17.1","12","","","NA","0.4","12","NA","","0","","","NA","249.1","0.0"
"-110.917","49.917","SEVEN PERSONS AGDM","3035845","AB","5.4","12","NA","24.0","12","-13.8","12","","","NA","0.0","14","NA","","0","","","NA","226.5","0.0"
"-110.215","50.732","SOCIAL PLAINS AGCM","3036040","AB","4.6","12","NA","22.2","12","-16.8","12","","","NA","0.0","12","NA","","0","","","NA","241.0","0.0"
"-112.982","51.228","STANDARD AGCM","3036086","AB","4.9","12","NA","24.2","12","-11.2","12","","","NA","1.0","19","NA","","0","","","NA","236.1","0.0"
"-113.883","50.183","STAVELY AAFC","3036099","AB","4.0","2","NA","22.5","2","-10.5","2","","","NA","14.9","2","NA","0.0","3","","","NA","391.9","0.0"
"-113.283","51.033","STRATHMORE AGDM","3036205","AB","4.1","12","NA","23.9","12","-14.1","12","","","NA","0.0","27","NA","","0","","","NA","250.6","0.0"
"-112.124","49.792","TABER","3036360","AB","4.5","16","NA","26.0","11","-10.0","12","22.0","11","NA","22.8","11","NA","0.0","3","","","NA","188.6","0.0"
"-111.321","50.456","TIDE LAKE AGCM","3036485","AB","5.2","12","NA","24.7","12","-14.4","12","","","NA","2.0","12","NA","","1","","","NA","231.3","0.0"
"-112.133","50.050","VAUXHALL CDA CS","3036682","AB","5.7","0","NA","25.1","0","-8.3","0","","","NA","","","NA","","","","","NA","369.3","0.0"
"-112.117","49.500","WRENTHAM AGDM","3037675","AB","5.9","13","NA","25.1","13","-9.5","13","","","NA","0.4","13","NA","0.0","0","","","NA","206.4","0.0"
"-113.961","50.729","OKOTOKS","303M9JM","AB","5.0","0","0.0","26.5","0","-10.0","0","10.8","0","49.0","15.0","0","40.0","0.0","6","","","NA","389.4","0.0"
"-112.788","49.871","PICTURE BUTTE WEST","303N1G3","AB","3.3","11","NA","20.0","11","-12.0","10","19.0","11","NA","19.0","11","NA","","3","","","NA","280.0","0.0"
"-112.817","49.050","DEL BONITA AGDM","3042045","AB","3.9","11","NA","23.3","11","-12.8","11","","","NA","10.7","12","NA","","2","","","NA","267.9","0.0"
"-110.678","49.364","MANYBERRIES AGCM","3044203","AB","3.1","11","NA","22.0","11","-17.4","11","","","NA","3.3","11","NA","","2","","","NA","282.4","0.0"
"-111.652","49.137","MASINASIN AGDM","3044232","AB","6.5","11","NA","24.9","11","-7.4","11","","","NA","4.0","12","NA","0.0","1","","","NA","218.2","0.0"
"-112.050","49.133","MILK RIVER","3044533","AB","4.6","3","NA","24.0","3","-9.5","3","","","NA","10.2","3","NA","8.0","3","","","NA","362.5","0.0"
"-110.467","49.117","ONEFOUR CDA","3044923","AB","4.6","8","NA","22.4","8","-14.2","8","","","NA","3.0","8","NA","","1","","","NA","293.8","0.0"
"-111.126","49.225","PAKOWKI LAKE AGCM","3045000","AB","5.7","12","NA","23.7","12","-9.8","12","","","NA","0.4","12","NA","","0","","","NA","221.9","0.0"
"-111.025","49.029","PINHORN AGCM","3045100","AB","4.9","12","NA","22.1","12","-12.0","12","","","NA","0.0","12","NA","","0","","","NA","235.2","0.0"
"-112.160","49.283","WARNER AGCM","3046951","AB","6.1","12","NA","24.4","12","-7.9","12","","","NA","0.5","15","NA","","0","","","NA","214.2","0.0"
"-115.552","51.193","BANFF CS","3050519","AB","2.8","0","NA","23.1","0","-14.3","0","","","NA","42.5","0","NA","","5","","","NA","456.8","0.0"
"-114.175","49.468","BEAVER MINES","3050602","AB","4.2","0","NA","24.5","0","-8.8","0","","","NA","27.2","0","NA","","7","","","NA","415.0","0.0"
"-115.067","51.083","BOW VALLEY","3050778","AB","3.9","0","NA","25.3","0","-14.3","0","","","NA","20.9","0","NA","","5","","","NA","421.9","0.0"
"-114.482","49.628","CROWSNEST","3051R4R","AB","2.9","0","NA","24.7","0","-13.5","0","","","NA","10.4","26","NA","","2","","","NA","453.2","0.0"
"-118.030","52.926","JASPER WARDEN","3053536","AB","3.9","0","NA","26.7","0","-12.5","0","","","NA","6.2","0","NA","","2","","","NA","422.9","0.0"
"-115.035","51.028","KANANASKIS","3053600","AB","3.6","0","0.4","25.0","0","-17.0","0","25.0","0","56.0","28.0","0","51.0","0.0","5","","","NA","432.0","0.0"
"-116.040","52.492","NORDEGG CS","3054843","AB","2.7","0","NA","24.7","0","-13.0","0","","","NA","23.4","0","NA","","4","","","NA","459.4","0.0"
"-114.416","50.368","PEKISKO","3055119","AB","2.9","6","NA","22.8","6","-18.6","6","","","NA","19.1","6","NA","6.0","6","","","NA","361.4","0.0"
"-113.809","49.131","WATERTON PARK GATE","3056214","AB","4.0","0","NA","24.8","0","-10.2","0","","","NA","33.8","0","NA","","9","","","NA","419.3","0.0"
"-115.787","54.144","WHITECOURT A","3057376","AB","4.8","0","NA","23.3","0","-8.3","0","","","NA","","","NA","","","","","NA","397.5","0.0"
"-115.190","50.943","NAKISKA RIDGETOP","305MGFF","AB","-3.6","9","NA","13.1","9","-13.8","9","","","NA","","","NA","","","","","NA","452.6","0.0"
"-113.382","54.635","ATHABASCA AGCM","3060330","AB","7.1","25","NA","22.1","25","-6.9","25","","","NA","0.5","25","NA","","0","","","NA","54.7","0.0"
"-112.825","54.782","ATMORE AGDM","3060406","AB","4.7","10","NA","22.1","10","-9.4","10","","","NA","2.2","14","NA","","1","","","NA","266.9","0.0"
"-114.448","54.095","BARRHEAD CS","3060535","AB","5.1","0","NA","25.3","0","-7.1","0","","","NA","0.9","0","NA","","0","","","NA","386.7","0.0"
"-117.867","53.350","BRULE BLACK CAT","3060903","AB","5.1","7","1.7","27.5","6","-10.0","1","2.0","0","12.0","10.6","0","31.0","0.0","3","","","NA","297.4","0.0"
"-114.678","54.131","CAMPSIE AUTO","3061201","AB","4.9","0","NA","25.0","0","-8.3","0","","","NA","2.0","0","NA","","1","","","NA","393.3","0.0"
"-115.894","53.623","CARROT CREEK","3061350","AB","4.7","11","NA","24.2","11","-12.1","11","","","NA","20.0","11","NA","","2","","","NA","253.1","0.0"
"-116.465","53.579","EDSON","3062239","AB","3.5","0","NA","24.7","0","-11.0","0","","","NA","12.6","0","NA","","3","","","NA","435.6","0.0"
"-116.453","53.580","EDSON CLIMATE","3062246","AB","3.6","0","NA","24.6","0","-9.9","0","","","NA","15.8","0","NA","","4","","","NA","431.4","0.0"
"-114.983","53.600","ENTWISTLE","3062451","AB","5.0","4","0.1","20.0","4","-7.0","4","9.0","4","NA","29.0","4","NA","","6","","","NA","337.5","0.0"
"-115.062","53.614","EVANSBURG2 AGCM","3062476","AB","4.8","11","NA","24.4","11","-9.1","11","","","NA","19.5","12","NA","","1","","","NA","251.2","0.0"
"-114.769","54.410","FORT ASSINIBOINE AGCM","3062660","AB","5.3","11","NA","24.7","11","-8.9","11","","","NA","5.6","11","NA","","1","","","NA","240.6","0.0"
"-111.213","56.651","FORT MCMURRAY CS","3062696","AB","4.2","0","NA","21.8","0","-8.5","0","","","NA","5.8","0","NA","","3","","","NA","413.0","0.0"
"-111.223","56.653","FORT MCMURRAY A","3062697","AB","4.2","0","NA","21.8","0","-8.6","0","","","NA","5.0","0","NA","","2","","","NA","412.9","0.0"
"-118.447","53.795","HENDRICKSON CREEK","3063135","AB","-0.4","0","NA","23.2","0","-22.8","0","","","NA","30.8","0","NA","34.0","9","","","NA","553.2","0.0"
"-116.479","55.396","HIGH PRAIRIE AGDM","3063165","AB","5.0","11","NA","25.5","11","-10.6","11","","","NA","5.1","18","NA","","1","","","NA","247.0","0.0"
"-113.543","54.821","ISLAND LAKE SOUTH","3063600","AB","4.1","0","NA","22.7","0","-8.4","0","","","NA","7.3","0","NA","","5","","","NA","416.2","0.0"
"-112.981","54.563","KINIKINIK","3063640","AB","6.6","25","NA","21.6","25","-9.3","25","","","NA","0.0","25","NA","","0","","","NA","57.0","0.0"
"-112.024","54.769","LAC LA BICHE CLIMATE","3063686","AB","4.1","0","NA","20.8","0","-8.0","0","","","NA","0.8","27","NA","","0","","","NA","418.3","0.0"
"-113.321","54.964","PLEASANT VIEW","3065200","AB","5.0","12","NA","21.8","12","-6.7","12","","","NA","6.6","12","NA","","2","","","NA","234.7","0.0"
"-111.700","54.500","RICH LAKE AGDM","3065475","AB","2.6","13","NA","20.3","13","-13.4","13","","","NA","11.9","13","NA","","1","","","NA","262.4","0.0"
"-111.835","53.851","ISPAS","3065712","AB","4.3","11","NA","20.4","11","-11.6","11","","","NA","17.1","11","NA","","2","","","NA","261.0","0.0"
"-114.777","55.293","SLAVE LAKE","3065995","AB","4.4","0","NA","24.9","0","-6.9","0","","","NA","4.0","0","NA","","1","","","NA","408.9","0.0"
"-114.777","55.293","SLAVE LAKE RCS","3065997","AB","4.2","0","NA","25.1","0","-7.1","0","","","NA","2.4","0","NA","","0","","","NA","414.6","0.0"
"-113.520","54.300","TAWATINAW AGCM","3066367","AB","5.1","12","NA","22.9","12","-7.8","12","","","NA","1.3","19","NA","","0","","","NA","232.6","0.0"
"-118.348","53.386","WILLOW CREEK 1","306GE70","AB","0.8","0","NA","23.6","0","-17.9","0","","","NA","5.6","0","NA","","3","","","NA","514.8","0.0"
"-113.941","54.683","DUCK LAKE AGCM","306X001","AB","4.1","12","NA","23.1","12","-6.9","12","","","NA","2.2","12","NA","0.0","1","","","NA","250.5","0.0"
"-117.236","55.577","BALLATER AGCM","3070495","AB","5.3","12","NA","27.1","12","-11.1","12","","","NA","4.9","13","NA","","1","","","NA","229.3","0.0"
"-119.396","55.197","BEAVERLODGE RCS","3070600","AB","4.7","0","NA","26.0","0","-7.3","0","","","NA","2.9","0","NA","","2","","","NA","398.4","0.0"
"-117.886","56.118","BROWNVALE AGCM","3070800","AB","5.1","10","NA","25.5","10","-11.9","10","","","NA","6.3","10","NA","","2","","","NA","258.1","0.0"
"-117.933","56.529","CLEAR HILLS AGCM","3071661","AB","4.8","11","NA","24.7","11","-11.9","11","","","NA","6.1","12","NA","","2","","","NA","250.0","0.0"
"-117.543","56.715","DEADWOOD AGCM","3071957","AB","5.7","11","NA","25.3","11","-10.4","11","","","NA","3.0","11","NA","","1","","","NA","232.9","0.0"
"-117.887","55.808","EAGLESHAM AGCM","3072151","AB","5.2","11","NA","26.2","11","-12.5","11","","","NA","8.9","12","NA","","1","","","NA","242.9","0.0"
"-118.439","56.081","FAIRVIEW AGDM","3072525","AB","4.7","11","NA","24.4","11","-9.9","11","","","NA","9.7","12","NA","","1","","","NA","253.0","0.0"
"-111.117","58.767","FORT CHIPEWYAN","3072655","AB","1.9","1","NA","18.9","1","-20.1","1","","","NA","3.5","1","NA","","1","","","NA","466.2","0.0"
"-111.117","58.767","FORT CHIPEWYAN RCS","3072659","AB","2.1","0","NA","19.3","0","-20.1","0","","","NA","9.3","0","NA","0.0","4","","","NA","477.0","0.0"
"-116.040","58.382","FORT VERMILION","3072723","AB","4.6","0","NA","24.4","0","-10.6","0","","","NA","21.2","0","NA","","6","","","NA","402.9","0.0"
"-118.885","55.180","GRANDE PRAIRIE A","3072921","AB","4.9","0","NA","27.2","0","-7.7","0","0.0","0","NA","4.4","0","NA","","1","","","NA","394.0","0.0"
"-117.298","57.265","HAWK HILLS AGCM","3073071","AB","3.9","12","NA","25.8","12","-16.4","12","","","NA","3.7","12","NA","","2","","","NA","253.7","0.0"
"-117.165","58.622","HIGH LEVEL A","3073140","AB","3.5","0","NA","23.8","0","-20.3","0","","","NA","8.2","0","NA","","3","","","NA","434.5","0.0"
"-117.164","58.631","HIGH LEVEL","3073148","AB","2.6","0","NA","23.5","0","-21.7","0","","","NA","11.5","0","NA","","4","","","NA","460.7","0.0"
"-117.120","55.913","JEAN COTE AGCM","3073535","AB","5.8","12","NA","25.8","12","-7.8","12","","","NA","4.7","12","NA","","2","","","NA","220.2","0.0"
"-117.677","57.788","KEG RIVER AGCM","3073644","AB","5.2","11","NA","25.3","11","-16.1","11","","","NA","2.2","11","NA","","1","","","NA","242.4","0.0"
"-116.343","58.172","LA CRETE AGCM","3073730","AB","5.3","12","NA","23.9","12","-12.9","12","","","NA","2.2","12","NA","","0","","","NA","228.5","0.0"
"-119.255","55.422","LA GLACE AGCM","3073740","AB","3.7","11","NA","25.5","11","-13.2","11","","","NA","4.6","12","NA","","1","","","NA","272.1","0.0"
"-117.451","56.974","MANNING AGDM","3074190","AB","4.2","11","NA","25.9","11","-14.4","11","","","NA","","","NA","","","","","NA","263.1","0.0"
"-119.745","56.314","CLEARDALE AGDM","3074935","AB","5.2","11","NA","24.6","11","-7.0","11","","","NA","17.7","12","NA","","2","","","NA","243.1","0.0"
"-117.448","56.227","PEACE RIVER A","3075041","AB","4.3","3","NA","25.4","3","-10.6","3","0.0","3","NA","4.9","3","NA","","1","","","NA","369.6","0.0"
"-117.452","56.193","ROMA","3075043","AB","5.0","0","NA","26.1","0","-9.8","0","","","NA","5.8","1","NA","","1","","","NA","390.2","0.0"
"-118.293","55.621","PEORIA AGDM","3075160","AB","4.7","12","NA","26.6","12","-11.3","12","","","NA","13.3","13","NA","","2","","","NA","238.7","0.0"
"-115.278","56.552","RED EARTH","3075488","AB","4.8","0","NA","24.8","0","-9.0","0","","","NA","11.5","0","NA","","4","","","NA","396.0","0.0"
"-116.481","58.452","ROCKY LANE AGCM","3075550","AB","5.3","12","NA","23.9","12","-16.8","12","","","NA","8.2","12","NA","","2","","","NA","228.8","0.0"
"-118.668","55.777","RYCROFT AGCM","3075601","AB","5.2","12","NA","25.3","12","-8.9","12","","","NA","11.0","13","NA","","1","","","NA","231.1","0.0"
"-119.345","56.076","SAVANNA AGCM","3075770","AB","4.3","12","NA","23.9","12","-10.5","12","","","NA","12.1","14","NA","","2","","","NA","246.5","0.0"
"-111.997","58.853","SWEETGRASS LANDING","3076330","AB","","","NA","","","","","","","NA","0.3","24","NA","","0","","","NA","",""
"-118.408","55.352","TEEPEE CREEK AGCM","3076366","AB","4.8","12","NA","27.0","12","-13.3","12","","","NA","4.1","13","NA","","2","","","NA","237.3","0.0"
"-116.848","58.021","TOMPKINS LANDING AGCM","3076530","AB","5.5","12","NA","24.8","12","-17.1","12","","","NA","6.2","17","NA","","2","","","NA","224.4","0.0"
"-117.199","55.098","VALLEYVIEW AGDM","3076680","AB","5.9","12","NA","26.3","12","-7.1","12","","","NA","2.9","13","NA","","1","","","NA","217.6","0.0"
"-113.866","58.711","GARDEN RIVER","307KPFP","AB","3.9","0","NA","26.6","0","-15.9","0","","","NA","8.0","25","NA","","2","","","NA","422.1","0.0"
"-110.283","54.417","COLD LAKE A","3081680","AB","3.2","0","-0.9","19.2","0","-10.9","0","0.2","0","1.0","8.2","0","26.0","","3","","","NA","443.7","0.0"
"-110.868","54.367","DUPRE AGCM","3081690","AB","3.0","12","NA","19.2","12","-15.2","12","","","NA","11.7","12","NA","","2","","","NA","269.6","0.0"
"-110.323","54.177","BEAVERDAM AGCM","308X001","AB","4.0","12","NA","18.4","12","-10.7","12","","","NA","6.9","13","NA","0.0","2","","","NA","252.9","0.0"
