"Long","Lat","Stn_Name","Clim_ID","Prov_or_Ter","Tm","DwTm","D","Tx","DwTx","Tn","DwTn","S","DwS","S%N","P","DwP","P%N","S_G","Pd","BS","DwBS","BS%","HDD","CDD"
"-112.967","54.283","ABEE AGDM","3010010","AB","-6.4","13","NA","5.6","13","-19.0","13","","","NA","0.0","13","NA","","0","","","NA","439.0","0.0"
"-111.181","53.113","ALBERT HALL AGCM","3010060","AB","-4.4","12","NA","5.9","12","-19.3","12","","","NA","5.5","14","NA","","1","","","NA","424.9","0.0"
"-111.779","52.315","ALLIANCE AGCM","3010162","AB","-2.3","12","NA","9.8","12","-16.7","12","","","NA","12.5","12","NA","","3","","","NA","385.2","0.0"
"-112.279","53.917","ANDREW AGDM","3010237","AB","-6.3","14","NA","6.3","14","-17.7","14","","","NA","3.6","14","NA","","1","","","NA","413.7","0.0"
"-111.465","52.582","BELLSHILL AGCM","3010650","AB","-1.9","12","NA","8.3","12","-15.4","12","","","NA","8.7","12","NA","","3","","","NA","377.7","0.0"
"-110.101","52.124","BODO AGDM","3010730","AB","-2.3","12","NA","8.1","12","-17.1","12","","","NA","9.8","12","NA","","3","","","NA","385.4","0.0"
"-114.483","53.167","BRETON","3010815","AB","","","NA","","","","","4.4","1","NA","4.4","1","NA","0.0","1","","","NA","",""
"-114.441","53.089","BRETON PLOTS","3010816","AB","-0.8","12","NA","13.8","12","-15.3","12","","","NA","3.2","12","NA","","1","","","NA","357.5","0.0"
"-113.922","53.931","BUSBY AGCM","3010979","AB","-3.0","13","NA","9.9","13","-15.7","13","","","NA","1.8","13","NA","","0","","","NA","378.1","0.0"
"-110.510","52.334","CADOGAN AGCM","3010992","AB","-2.1","12","NA","8.2","12","-17.4","12","","","NA","6.7","12","NA","","3","","","NA","381.1","0.0"
"-113.863","53.290","CALMAR","3011120","AB","","","","0.5","30","-16.5","30","0.0","30","NA","0.0","30","NA","","0","","","NA","",""
"-112.817","53.050","CAMROSE","3011240","AB","-4.3","0","5.6","8.1","0","-16.8","0","","","NA","8.4","0","54.0","2.0","2","","","NA","692.7","0.0"
"-110.713","51.937","CONSORT AGDM","3011815","AB","-1.9","12","NA","8.7","12","-16.8","12","","","NA","4.6","12","NA","","1","","","NA","378.1","0.0"
"-111.449","52.074","CORONATION CLIMATE","3011887","AB","-4.2","0","NA","7.0","0","-19.3","0","","","NA","8.6","0","NA","1.0","2","","","NA","686.8","0.0"
"-113.903","52.733","CRESTOMERE AGCM","3011892","AB","-1.9","12","NA","11.5","12","-15.7","12","","","NA","4.2","12","NA","","4","","","NA","377.3","0.0"
"-113.950","52.750","DAKOTA WEST","3011953","AB","-0.8","2","7.6","12.5","2","-14.0","2","2.0","2","NA","2.0","2","NA","0.0","2","","","NA","546.4","0.0"
"-113.176","52.183","DELBURNE AGCM","3012050","AB","-1.3","12","NA","11.5","12","-13.2","12","","","NA","8.8","12","NA","","3","","","NA","367.6","0.0"
"-110.588","53.659","DEWBERRY AGCM","3012073","AB","-5.1","12","NA","5.0","12","-18.8","12","","","NA","0.0","12","NA","","0","","","NA","438.1","0.0"
"-110.433","52.778","EDGERTON AGCM","3012192","AB","-3.3","12","NA","6.2","12","-17.5","12","","","NA","4.6","12","NA","","1","","","NA","405.5","0.0"
"-113.606","53.307","EDMONTON INTERNATIONAL CS","3012206","AB","-4.0","1","NA","8.8","1","-18.5","1","","","NA","3.9","1","NA","","2","","","NA","658.6","0.0"
"-113.517","53.573","EDMONTON BLATCHFORD","3012209","AB","-1.9","0","NA","9.7","0","-12.3","0","","","NA","3.8","0","NA","","1","","","NA","618.4","0.0"
"-113.579","53.310","EDMONTON INTL A","3012216","AB","-4.2","0","NA","8.7","0","-18.7","0","5.2","0","NA","5.2","0","NA","1.0","2","","","NA","688.3","0.0"
"-113.538","53.490","EDMONTON SOUTH CAMPUS","3012220","AB","-1.5","12","NA","10.1","12","-12.5","12","","","NA","3.6","12","NA","","1","","","NA","370.4","0.0"
"-113.856","53.668","EDMONTON VILLENEUVE A","3012229","AB","-3.3","0","NA","12.8","0","-16.6","0","","","NA","0.0","0","NA","","0","","","NA","661.3","0.0"
"-114.108","53.548","EDMONTON STONY PLAIN","301222F","AB","-0.9","0","8.0","11.0","0","-17.5","0","0.2","0","1.0","1.0","0","6.0","0.0","0","","","NA","586.4","0.0"
"-112.868","53.683","ELK ISLAND NAT PARK","3012275","AB","-3.4","0","6.2","10.4","0","-17.2","0","","","NA","6.2","0","37.0","2.0","2","","","NA","662.7","0.0"
"-111.000","52.967","FABYAN","3012515","AB","-4.9","2","7.2","6.5","1","-17.5","1","1.0","1","NA","1.0","1","NA","0.0","1","","","NA","664.0","0.0"
"-112.858","52.744","FERINTOSH AGCM","3012590","AB","-3.3","12","NA","10.0","12","-16.5","12","","","NA","7.4","12","NA","","2","","","NA","405.0","0.0"
"-111.813","52.041","FLEET AGCM","3012635","AB","-3.3","12","NA","8.5","12","-17.0","12","","","NA","7.5","12","NA","","4","","","NA","404.3","0.0"
"-112.123","52.548","FORESTBURG AGCM","3012653","AB","-2.7","12","NA","8.2","12","-17.9","12","","","NA","10.3","12","NA","","2","","","NA","393.7","0.0"
"-110.621","53.071","GILT EDGE NORTH AGCM","3012790","AB","-3.2","12","NA","5.8","12","-16.5","12","","","NA","3.7","12","NA","","1","","","NA","402.7","0.0"
"-114.320","53.295","ST. FRANCIS","3012799","AB","0.2","12","NA","13.7","12","-12.9","12","","","NA","1.5","12","NA","","1","","","NA","338.5","0.0"
"-112.278","52.987","GLADSTONE AGCM","3012810","AB","-4.0","12","NA","5.6","12","-17.9","12","","","NA","8.1","14","NA","","2","","","NA","418.9","0.0"
"-114.539","53.833","GLENEVIS AGCM","3012818","AB","-0.9","12","NA","11.8","12","-14.7","12","","","NA","","","NA","","","","","NA","358.2","0.0"
"-110.803","52.113","GOOSEBERRY LAKE AGCM","3012871","AB","-3.4","12","NA","8.8","12","-20.8","12","","","NA","7.5","12","NA","","3","","","NA","406.8","0.0"
"-112.164","52.116","HALKIRK AGCM","3012999","AB","-2.8","12","NA","10.0","12","-15.7","12","","","NA","6.1","14","NA","","2","","","NA","396.1","0.0"
"-111.212","51.780","HEMARUKA AGCM","3013140","AB","-2.3","12","NA","9.9","12","-18.0","12","","","NA","3.2","12","NA","","1","","","NA","385.2","0.0"
"-112.246","53.185","HOLDEN AGDM","3013340","AB","-4.3","12","NA","4.9","12","-17.1","12","","","NA","8.8","14","NA","","2","","","NA","424.4","0.0"
"-110.784","52.578","HUGHENDEN AGCM","3013362","AB","-2.5","12","NA","6.8","12","-18.3","12","","","NA","6.2","12","NA","","1","","","NA","389.8","0.0"
"-111.872","52.848","KILLAM AGDM","3013640","AB","-4.8","12","NA","6.6","12","-19.5","12","","","NA","","","NA","","","","","NA","433.8","0.0"
"-111.113","52.290","KESSLER AGCM","3013644","AB","-1.9","12","NA","8.5","12","-19.1","12","","","NA","9.0","15","NA","","2","","","NA","377.2","0.0"
"-111.548","53.047","KINSELLA RESEARC STATION","3013647","AB","-4.0","13","NA","6.6","13","-18.0","13","","","NA","6.1","13","NA","","1","","","NA","396.5","0.0"
"-110.416","53.353","KITSCOTY AGCM","3013660","AB","-3.3","12","NA","5.3","12","-15.5","12","","","NA","1.8","12","NA","","1","","","NA","404.6","0.0"
"-113.474","54.003","LEGAL AGCM","3013790","AB","-2.7","12","NA","9.7","12","-14.2","12","","","NA","0.4","12","NA","","0","","","NA","393.2","0.0"
"-110.579","53.943","LINDBERGH AGDM","3013921","AB","-6.1","12","NA","6.2","12","-20.1","12","","","NA","0.0","12","NA","","0","","","NA","458.0","0.0"
"-110.073","53.309","LLOYDMINSTER","3013959","AB","-4.4","0","NA","5.3","0","-17.0","0","","","NA","3.8","0","NA","","1","","","NA","695.1","0.0"
"-110.073","53.309","LLOYDMINSTER A","3013961","AB","-4.4","0","8.0","5.0","0","-16.5","0","0.4","0","3.0","0.4","0","3.0","0.0","0","","","NA","695.5","0.0"
"-111.255","53.456","MANNVILLE AGCM","3014195","AB","-3.4","12","NA","5.2","12","-16.7","12","","","NA","4.1","12","NA","","1","","","NA","407.2","0.0"
"-110.550","52.017","MONITOR","3014600","AB","","","NA","","","","","7.6","0","50.0","9.4","0","61.0","0.0","3","","","NA","",""
"-112.300","53.567","MUNDARE AGDM","3014665","AB","-2.4","27","NA","6.2","27","-9.0","27","","","NA","0.0","27","NA","","0","","","NA","81.4","0.0"
"-113.165","53.262","NEW SAREPTA AGCM","3014795","AB","-2.9","12","NA","7.9","12","-15.3","12","","","NA","7.3","12","NA","","2","","","NA","397.0","0.0"
"-113.350","53.650","OLIVER AGDM","3014921","AB","-3.4","12","NA","9.4","12","-17.9","12","","","NA","5.2","12","NA","","1","","","NA","405.9","0.0"
"-112.879","53.995","RADWAY AGCM","3015346","AB","-4.9","12","NA","6.2","12","-17.3","12","","","NA","","","NA","","","","","NA","435.7","0.0"
"-111.726","53.425","RANFURLY AUTO","3015401","AB","-4.4","0","NA","4.3","0","-16.0","0","","","NA","7.3","0","NA","2.0","1","","","NA","693.3","0.0"
"-110.343","52.587","RIBSTONE SOUTH AGCM","3015480","AB","-3.2","12","NA","6.8","12","-18.2","12","","","NA","7.1","12","NA","","1","","","NA","403.5","0.0"
"-110.102","53.019","RIVERCOURSE AGCM","3015501","AB","-3.7","12","NA","5.7","12","-15.9","12","","","NA","5.3","12","NA","","1","","","NA","411.6","0.0"
"-114.912","52.421","ROCKY MTN HOUSE (AUT)","3015523","AB","-4.5","0","NA","10.5","0","-20.4","0","","","NA","14.1","0","NA","9.0","5","","","NA","696.3","0.0"
"-112.422","52.792","ROSALIND AGCM","3015600","AB","-2.6","16","NA","6.9","16","-12.6","16","","","NA","6.8","16","NA","","1","","","NA","309.4","0.0"
"-111.453","54.282","ST. LINA AGCM","3015673","AB","-4.1","12","NA","7.6","12","-15.7","12","","","NA","0.9","19","NA","","0","","","NA","419.6","0.0"
"-111.272","54.011","ST. PAUL AGCM","3015676","AB","-5.4","12","NA","5.9","12","-18.3","12","","","NA","2.3","12","NA","","1","","","NA","445.3","0.0"
"-110.755","51.590","SEDALIA AGCM","3015797","AB","-1.7","12","NA","11.0","12","-16.9","12","","","NA","2.5","12","NA","","1","","","NA","373.6","0.0"
"-112.539","53.333","SHONTS AGCM","3015900","AB","-4.3","12","NA","8.7","12","-17.4","12","","","NA","9.3","12","NA","","2","","","NA","423.2","0.0"
"-112.499","54.278","SMOKY LAKE AGDM","3016022","AB","-4.2","12","NA","5.5","12","-15.4","12","","","NA","0.5","12","NA","","0","","","NA","420.9","0.0"
"-111.683","51.816","SPONDIN AGCM","3016070","AB","-2.8","12","NA","11.1","12","-18.0","12","","","NA","3.1","16","NA","","2","","","NA","396.0","0.0"
"-112.596","52.347","STETTLER AGDM","3016124","AB","-2.2","12","NA","9.1","12","-14.8","12","","","NA","9.4","13","NA","","3","","","NA","383.1","0.0"
"-113.895","53.217","THORSBY AGCM","3016441","AB","-1.5","12","NA","13.8","12","-16.0","12","","","NA","2.5","12","NA","","1","","","NA","371.2","0.0"
"-114.718","53.439","TOMAHAWK AGDM","3016505","AB","-1.7","13","NA","11.0","13","-16.4","13","","","NA","0.5","13","NA","","0","","","NA","354.5","0.0"
"-110.081","53.664","TULLIBY LAKE AGCM","3016593","AB","-5.8","12","NA","5.3","12","-19.4","12","","","NA","0.4","12","NA","","0","","","NA","451.8","0.0"
"-113.033","53.500","UNCAS","3016650","AB","","","NA","","","","","8.0","0","NA","10.2","0","NA","1.0","3","","","NA","",""
"-111.678","53.625","TWO HILLS AGDM","3016655","AB","-3.5","14","NA","6.8","14","-14.9","14","","","NA","5.1","14","NA","","1","","","NA","365.6","0.0"
"-110.882","53.344","VERMILION AGDM","3016802","AB","-4.3","12","NA","5.1","12","-17.6","12","","","NA","4.4","13","NA","","1","","","NA","423.3","0.0"
"-111.732","53.182","VIKING AGCM","3016841","AB","-3.2","12","NA","6.7","12","-15.2","12","","","NA","5.3","12","NA","","2","","","NA","402.3","0.0"
"-112.098","53.505","VEGREVILLE","3016GF0","AB","-5.6","0","6.2","5.2","0","-18.2","0","","","NA","7.7","0","62.0","1.0","1","","","NA","731.3","0.0"
"-113.444","52.980","WETASKIWIN AGCM","3017282","AB","-2.5","12","NA","9.1","12","-15.9","12","","","NA","7.1","15","NA","","2","","","NA","388.7","0.0"
"-111.224","51.491","YOUNGSTOWN AGCM","3017705","AB","-1.5","12","NA","10.3","12","-14.2","12","","","NA","2.8","12","NA","","2","","","NA","370.1","0.0"
"-114.108","53.547","EDMONTON STONY PLAIN CS","301A001","AB","-1.3","0","NA","11.0","0","-13.2","0","","","NA","1.0","0","NA","","0","","","NA","598.0","0.0"
"-110.206","51.670","ESTHER 1","301B460","AB","-2.4","0","NA","12.1","0","-17.3","0","","","NA","4.3","0","NA","0.0","2","","","NA","633.0","0.0"
"-111.096","52.829","WAINWRIGHT CFB AIRFIELD 21","301S001","AB","-3.5","0","NA","6.4","0","-17.9","0","","","NA","5.0","0","NA","4.0","1","","","NA","667.2","0.0"
"-113.821","54.308","PIBROCH AGCM","301X001","AB","-6.0","12","NA","4.4","12","-20.1","12","","","NA","0.8","12","NA","","0","","","NA","456.6","0.0"
"-113.099","53.843","REDWATER INDUSTRIAL AGCM","301X002","AB","-2.5","12","NA","8.0","12","-16.5","12","","","NA","4.0","12","NA","","1","","","NA","390.4","0.0"
"-110.025","53.358","LLOYDMINSTER LITE","301X003","AB","-4.4","12","NA","6.3","12","-19.3","12","","","NA","2.3","12","NA","","1","","","NA","425.0","0.0"
"-110.317","51.066","ACADIA VALLEY","3020035","AB","-0.6","12","NA","14.5","12","-13.5","12","","","NA","0.4","12","NA","","0","","","NA","352.5","0.0"
"-111.006","50.810","ATLEE AGCM","3020405","AB","0.2","12","NA","15.1","12","-14.5","12","","","NA","0.8","12","NA","","0","","","NA","339.1","0.0"
"-113.357","51.379","BEISEKER AGCM","3020610","AB","-1.7","12","NA","10.8","12","-16.9","12","","","NA","8.4","12","NA","","2","","","NA","375.2","0.0"
"-112.803","51.998","BIG VALLEY AGCM","3020679","AB","-2.5","12","NA","8.7","12","-16.3","12","","","NA","6.3","27","NA","","2","","","NA","388.9","0.0"
"-110.686","50.798","BUFFALO AGCM","3020950","AB","0.2","12","NA","16.3","12","-15.0","12","","","NA","1.2","12","NA","","1","","","NA","337.9","0.0"
"-111.221","51.024","CABIN LAKE AGCM","3021000","AB","-1.6","12","NA","13.9","12","-17.1","12","","","NA","","","NA","","","","","NA","372.4","0.0"
"-110.797","51.067","CAPPON","3021200","AB","-1.7","12","NA","13.2","12","-17.7","12","","","NA","2.2","12","NA","","1","","","NA","374.0","0.0"
"-110.824","51.276","CEREAL AGCM","3021463","AB","-1.4","12","NA","12.1","12","-16.4","12","","","NA","3.4","12","NA","","2","","","NA","368.2","0.0"
"-112.252","51.775","CRAIGMYLE AGCM","3021912","AB","-2.5","12","NA","10.2","12","-15.6","12","","","NA","4.8","12","NA","","2","","","NA","388.8","0.0"
"-112.677","51.445","DRUMHELLER EAST","30221LG","AB","-4.0","0","NA","9.8","0","-16.8","0","","","NA","8.2","0","NA","2.0","2","","","NA","680.7","0.0"
"-112.097","51.053","FINNEGAN AGCM","3022650","AB","-2.2","12","NA","14.5","12","-16.5","12","","","NA","1.2","26","NA","","0","","","NA","383.5","0.0"
"-112.135","51.453","HAND HILLS AGCM","3022990","AB","-1.3","12","NA","10.4","12","-13.8","12","","","NA","7.0","12","NA","","3","","","NA","366.9","0.0"
"-114.486","52.310","HESPERO AGCM","3023200","AB","-3.9","13","NA","10.2","13","-19.1","13","","","NA","9.2","13","NA","","4","","","NA","394.0","0.0"
"-112.500","51.183","HUSSAR AGDM","3023402","AB","-0.2","12","NA","13.5","12","-11.6","12","","","NA","3.5","12","NA","","2","","","NA","345.5","0.0"
"-110.359","51.913","KIRRIEMUIR AGCM","3023660","AB","-2.6","12","NA","9.4","12","-18.6","12","","","NA","5.4","12","NA","","2","","","NA","391.6","0.0"
"-113.756","52.449","LACOMBE CDA 2","3023722","AB","-3.5","0","NA","9.1","0","-16.2","0","","","NA","11.5","0","NA","0.0","3","","","NA","667.2","0.0"
"-114.473","52.553","LEEDALE AGDM","3023740","AB","-5.0","12","NA","9.2","12","-20.3","12","","","NA","8.9","26","NA","","2","","","NA","436.2","0.0"
"-113.656","51.619","LINDEN AGCM","3023850","AB","-2.1","12","NA","14.5","12","-18.5","12","","","NA","9.1","12","NA","","3","","","NA","382.1","0.0"
"-110.341","49.458","LODGE CREEK","3023900","AB","-0.9","12","NA","15.4","12","-15.1","12","","","NA","2.2","12","NA","","1","","","NA","359.2","0.0"
"-112.675","51.660","MORRIN AGDM","3024668","AB","-3.2","12","NA","8.4","12","-17.5","12","","","NA","8.7","12","NA","","1","","","NA","403.3","0.0"
"-114.085","51.759","OLDS AGDM","3024925","AB","-0.5","12","NA","13.3","12","-15.5","12","","","NA","13.6","13","NA","","4","","","NA","351.1","0.0"
"-110.350","51.383","OYEN AGDM","3024965","AB","-1.0","12","NA","11.5","12","-13.9","12","","","NA","2.0","13","NA","","1","","","NA","360.7","0.0"
"-111.621","50.740","PATRICIA AGCM","3025013","AB","-0.1","12","NA","15.8","12","-13.1","12","","","NA","0.9","12","NA","","0","","","NA","343.6","0.0"
"-111.705","51.125","POLLOCKVILLE AGDM","3025243","AB","-2.7","12","NA","13.4","12","-19.0","12","","","NA","2.3","12","NA","","1","","","NA","393.1","0.0"
"-113.600","52.433","PRENTISS","3025297","AB","-1.5","0","NA","11.1","0","-14.2","0","","","NA","9.4","0","NA","","4","","","NA","604.0","0.0"
"-113.894","52.182","RED DEER REGIONAL A","3025484","AB","-4.5","2","NA","9.0","2","-18.2","2","","","NA","11.3","2","NA","","3","","","NA","653.5","0.0"
"-113.620","53.692","ST. ALBERT RESEARCH STATION","3025750","AB","-3.2","0","NA","9.9","0","-17.1","0","","","NA","2.5","0","NA","","1","","","NA","657.4","0.0"
"-110.091","50.307","SCHULER AGDM","3025768","AB","0.6","12","NA","15.2","12","-14.2","12","","","NA","1.9","12","NA","","1","","","NA","329.9","0.0"
"-111.646","51.463","SHEERNESS AGCM","3025890","AB","-1.2","12","NA","10.9","12","-13.0","12","","","NA","3.3","12","NA","","1","","","NA","364.0","0.0"
"-111.388","51.301","SUNNYNOOK AGCM","3026264","AB","-2.8","13","NA","10.4","13","-19.3","13","","","NA","4.3","13","NA","","1","","","NA","375.0","0.0"
"-113.206","51.768","THREE HILLS","3026479","AB","-3.9","12","NA","13.7","12","-20.1","12","","","NA","7.6","12","NA","","2","","","NA","416.4","0.0"
"-111.955","50.895","VERGER","3026800","AB","-1.9","13","NA","16.2","13","-16.5","13","","","NA","0.4","14","NA","","0","","","NA","359.0","0.0"
"-114.683","51.778","SUNDRE A","3026KNQ","AB","-3.9","0","NA","15.5","0","-21.7","0","","","NA","15.3","0","NA","9.0","5","","","NA","678.9","0.0"
"-113.591","51.936","WIMBORNE AGCM","3027582","AB","-2.3","12","NA","9.7","12","-17.4","12","","","NA","11.2","12","NA","","3","","","NA","385.3","0.0"
"-113.434","49.528","ARDENVILLE","3030200","AB","2.9","12","NA","15.1","12","-9.1","12","","","NA","5.6","14","NA","","1","","","NA","287.4","0.0"
"-114.013","50.512","AZURE","3030450","AB","1.7","12","NA","15.7","12","-12.2","12","","","NA","11.1","17","NA","","3","","","NA","310.4","0.0"
"-112.300","49.800","BARNWELL AGDM","3030525","AB","2.3","12","NA","16.3","12","-10.2","12","","","NA","7.3","12","NA","","2","","","NA","297.7","0.0"
"-113.224","50.026","BARONS AGCM","3030529","AB","1.6","12","NA","17.0","12","-13.6","12","","","NA","6.2","13","NA","","2","","","NA","311.2","0.0"
"-112.465","50.893","BASSANO AGCM","3030540","AB","-1.5","12","NA","15.6","12","-14.6","12","","","NA","2.8","12","NA","","1","","","NA","369.7","0.0"
"-114.152","50.707","BLACK DIAMOND","3030680","AB","-0.7","12","NA","17.0","12","-14.0","12","","","NA","11.7","14","NA","","2","","","NA","355.6","0.0"
"-113.640","50.546","BLACKIE AGCM","3030690","AB","-0.5","12","NA","16.8","12","-16.1","12","","","NA","12.3","13","NA","","3","","","NA","351.1","0.0"
"-113.050","49.567","BLOOD TRIBE AGDM","3030720","AB","2.3","12","NA","16.2","12","-10.4","12","","","NA","4.5","12","NA","","1","","","NA","298.7","0.0"
"-111.450","49.734","BOW ISLAND","3030768","AB","1.6","0","NA","18.6","0","-11.3","0","","","NA","5.3","0","NA","","1","","","NA","507.8","0.0"
"-113.817","49.617","BROCKET AGDM","3030830","AB","2.8","12","NA","13.2","12","-11.7","12","","","NA","8.4","12","NA","","2","","","NA","289.6","0.0"
"-110.484","50.339","BULL SPRINGS AGCM","3030879","AB","1.3","12","NA","15.4","12","-11.6","12","","","NA","1.5","14","NA","","1","","","NA","317.2","0.0"
"-111.849","50.555","BROOKS","3030QLP","AB","-1.2","0","NA","16.3","0","-15.7","0","","","NA","3.8","0","NA","","1","","","NA","595.6","0.0"
"-114.013","51.123","CALGARY INTL A","3031092","AB","0.5","0","NA","17.0","0","-13.8","0","21.0","0","NA","21.1","0","NA","","4","","","NA","542.2","0.0"
"-114.000","51.109","CALGARY INT'L CS","3031094","AB","0.1","0","NA","16.9","0","-14.5","0","","","NA","13.9","0","NA","","5","","","NA","554.5","0.0"
"-114.371","51.105","CALGARY SPRINGBANK A","3031109","AB","-1.7","0","NA","16.1","0","-19.0","0","","","NA","5.5","0","NA","","3","","","NA","609.9","0.0"
"-113.286","49.201","CARDSTON","3031322","AB","2.1","0","NA","15.7","0","-15.4","0","","","NA","7.2","0","NA","","2","","","NA","491.6","0.0"
"-113.376","49.001","CARWAY","3031402","AB","1.3","3","NA","14.5","3","-17.6","3","","","NA","11.9","3","NA","","3","","","NA","466.6","0.0"
"-113.350","50.282","CHAMPION AGDM","3031480","AB","0.2","12","NA","15.8","12","-13.4","12","","","NA","11.6","12","NA","","3","","","NA","338.6","0.0"
"-113.639","50.004","CLARESHOLM","3031640","AB","1.7","0","NA","17.3","0","-16.7","0","","","NA","11.5","0","NA","","4","","","NA","504.9","0.0"
"-114.222","51.076","COP UPPER","3031875","AB","0.8","1","NA","15.2","1","-11.0","1","","","NA","13.3","1","NA","","3","","","NA","516.3","0.0"
"-112.433","50.183","ENCHANT AGDM","3032422","AB","2.4","13","NA","15.5","13","-10.0","13","","","NA","6.8","13","NA","","2","","","NA","280.3","0.0"
"-111.054","49.553","ETZIKOM AGCM","3032450","AB","2.1","12","NA","18.0","12","-10.2","12","","","NA","3.6","12","NA","","1","","","NA","303.0","0.0"
"-112.033","49.800","FINCASTLE AGDM","3032550","AB","2.7","13","NA","17.2","13","-8.7","13","","","NA","8.7","16","NA","","2","","","NA","276.3","0.0"
"-111.486","49.483","FOREMOST AGDM","3032642","AB","2.6","12","NA","17.5","12","-8.3","12","","","NA","5.9","13","NA","","2","","","NA","293.5","0.0"
"-113.379","49.786","FORT MACLEOD AGCM","3032683","AB","3.1","12","NA","14.6","12","-9.4","12","","","NA","4.9","14","NA","","2","","","NA","283.0","0.0"
"-112.941","50.934","GLEICHEN AGCM","3032801","AB","-0.6","12","NA","16.3","12","-13.2","12","","","NA","4.8","12","NA","","2","","","NA","353.2","0.0"
"-111.733","49.874","GRASSY LAKE","3032927","AB","2.4","12","NA","16.9","12","-8.8","12","","","NA","6.0","12","NA","","2","","","NA","295.7","0.0"
"-114.292","50.869","PRIDDIS OBSERVATORY","3033505","AB","0.5","1","NA","16.0","1","-13.9","1","","","NA","19.5","1","NA","","4","","","NA","524.2","0.0"
"-110.261","49.989","IRVINE AGCM","3033550","AB","3.1","12","NA","18.2","12","-10.4","12","","","NA","4.0","12","NA","","1","","","NA","284.0","0.0"
"-113.631","51.191","KEOMA AGCM","3033620","AB","-0.6","12","NA","16.0","12","-15.1","12","","","NA","10.6","14","NA","","3","","","NA","352.6","0.0"
"-112.299","50.600","LATHOM AGCM","3033770","AB","0.1","12","NA","16.6","12","-13.7","12","","","NA","5.2","13","NA","","2","","","NA","339.9","0.0"
"-112.799","49.630","LETHBRIDGE","3033875","AB","1.9","0","NA","16.8","0","-13.0","0","","","NA","4.6","0","NA","","2","","","NA","498.3","0.0"
"-112.763","49.647","LETHBRIDGE AGTECH AGCM","3033877","AB","2.9","12","NA","16.9","12","-10.1","12","","","NA","7.8","13","NA","","2","","","NA","287.6","0.0"
"-112.768","49.695","LETHBRIDGE CDA","3033890","AB","2.8","0","NA","16.2","0","-10.9","0","","","NA","","","NA","","","","","NA","470.0","0.0"
"-112.783","49.700","LETHBRIDGE CDA 2","3033892","AB","","","NA","","","","","3.0","1","NA","15.6","0","NA","0.0","3","","","NA","",""
"-112.750","49.683","LETHBRIDGE DEMO FARM AGDM","3033897","AB","2.9","12","NA","16.6","12","-9.8","12","","","NA","5.3","23","NA","","2","","","NA","286.1","0.0"
"-110.721","50.019","MEDICINE HAT","3034479","AB","1.0","0","NA","18.0","0","-12.1","0","","","NA","0.0","0","NA","","0","","","NA","525.8","0.0"
"-110.717","50.025","MEDICINE HAT RCS","3034485","AB","1.2","0","NA","17.9","0","-12.1","0","","","NA","3.3","0","NA","","1","","","NA","519.9","0.0"
"-113.349","50.673","MOSSLEIGH AGCM","3034577","AB","-0.8","12","NA","16.7","12","-18.2","12","","","NA","11.4","12","NA","","2","","","NA","356.3","0.0"
"-114.099","51.369","NIER AGDM","3034795","AB","0.9","13","NA","14.8","13","-11.6","13","","","NA","9.0","13","NA","","3","","","NA","307.3","0.0"
"-113.997","49.521","PINCHER CREEK","3035198","AB","1.4","0","NA","12.2","0","-15.0","0","","","NA","16.8","0","NA","","2","","","NA","516.0","0.0"
"-114.005","49.522","PINCHER CREEK CLIMATE","3035208","AB","1.4","0","NA","12.1","0","-15.1","0","","","NA","26.4","0","NA","","3","","","NA","513.6","0.0"
"-112.983","50.606","QUEENSTOWN","3035340","AB","0.4","0","6.9","16.5","0","-12.5","0","12.0","0","83.0","14.5","0","97.0","0.0","3","","","NA","545.4","0.0"
"-112.117","50.367","RAINIER AGCM","3035355","AB","0.3","12","NA","16.1","12","-14.7","12","","","NA","5.8","12","NA","","1","","","NA","335.4","0.0"
"-111.213","50.099","RALSTON AGCM","3035362","AB","1.8","13","NA","16.0","13","-9.9","13","","","NA","3.5","13","NA","","2","","","NA","292.3","0.0"
"-112.683","49.483","RAYMOND AGDM","3035422","AB","3.2","12","NA","16.6","12","-8.2","12","","","NA","4.8","13","NA","","2","","","NA","281.8","0.0"
"-111.701","50.265","ROLLING HILLS AGCM","3035530","AB","0.4","12","NA","17.5","12","-13.2","12","","","NA","3.3","13","NA","","2","","","NA","334.9","0.0"
"-112.050","50.833","ROSEMARY AGDM","3035650","AB","-2.0","12","NA","16.7","12","-16.2","12","","","NA","1.6","12","NA","","1","","","NA","380.3","0.0"
"-110.917","49.917","SEVEN PERSONS AGDM","3035845","AB","2.3","12","NA","18.4","12","-9.1","12","","","NA","2.5","12","NA","","1","","","NA","298.3","0.0"
"-110.215","50.732","SOCIAL PLAINS AGCM","3036040","AB","0.4","12","NA","15.5","12","-12.9","12","","","NA","0.8","12","NA","","0","","","NA","335.1","0.0"
"-112.982","51.228","STANDARD AGCM","3036086","AB","0.1","12","NA","14.1","12","-12.3","12","","","NA","5.5","20","NA","","2","","","NA","339.3","0.0"
"-113.883","50.183","STAVELY AAFC","3036099","AB","2.1","0","NA","13.4","0","-9.1","0","","","NA","15.7","0","NA","0.0","4","","","NA","493.9","0.0"
"-113.283","51.033","STRATHMORE AGDM","3036205","AB","-0.3","12","NA","15.4","12","-11.5","12","","","NA","6.7","13","NA","","2","","","NA","346.9","0.0"
"-112.124","49.792","TABER","3036360","AB","3.7","18","NA","16.5","13","-10.5","14","8.0","13","NA","9.0","13","NA","","2","","","NA","185.7","0.0"
"-111.321","50.456","TIDE LAKE AGCM","3036485","AB","0.1","12","NA","16.6","12","-14.0","12","","","NA","3.2","14","NA","","2","","","NA","339.9","0.0"
"-112.863","50.304","TRAVERS AGCM","3036500","AB","1.8","12","NA","16.0","12","-10.2","12","","","NA","7.4","12","NA","","2","","","NA","308.1","0.0"
"-112.117","49.500","WRENTHAM AGDM","3037675","AB","2.3","12","NA","16.6","12","-9.0","12","","","NA","6.8","12","NA","","3","","","NA","299.1","0.0"
"-113.961","50.729","OKOTOKS","303M9JM","AB","-0.3","0","5.9","17.0","0","-16.0","0","0.0","0","0.0","0.0","0","0.0","0.0","0","","","NA","568.4","0.0"
"-112.817","49.050","DEL BONITA AGDM","3042045","AB","2.0","12","NA","14.5","12","-11.9","12","","","NA","2.2","13","NA","","1","","","NA","304.6","0.0"
"-110.678","49.364","MANYBERRIES AGCM","3044203","AB","0.8","12","NA","17.7","12","-13.6","12","","","NA","1.6","12","NA","","1","","","NA","327.5","0.0"
"-111.652","49.137","MASINASIN AGDM","3044232","AB","3.2","12","NA","17.7","12","-9.0","12","","","NA","4.7","12","NA","","2","","","NA","281.0","0.0"
"-112.050","49.133","MILK RIVER","3044533","AB","1.5","4","NA","16.6","4","-15.2","4","","","NA","11.8","4","NA","3.0","5","","","NA","446.6","0.0"
"-110.467","49.117","ONEFOUR CDA","3044923","AB","-0.6","3","NA","18.0","3","-13.1","3","","","NA","0.0","29","NA","1.0","0","","","NA","521.4","0.0"
"-111.126","49.225","PAKOWKI LAKE AGCM","3045000","AB","2.3","12","NA","17.9","12","-10.8","12","","","NA","4.4","12","NA","","1","","","NA","297.5","0.0"
"-111.025","49.029","PINHORN AGCM","3045100","AB","4.1","12","NA","16.1","12","-7.4","12","","","NA","4.2","12","NA","","2","","","NA","264.7","0.0"
"-112.160","49.283","WARNER AGCM","3046951","AB","3.7","12","NA","17.0","12","-9.0","12","","","NA","4.8","12","NA","","2","","","NA","272.5","0.0"
"-115.552","51.193","BANFF CS","3050519","AB","-4.0","0","NA","7.1","0","-17.0","0","","","NA","37.2","0","NA","12.0","6","","","NA","680.9","0.0"
"-114.175","49.468","BEAVER MINES","3050602","AB","1.7","0","NA","13.3","0","-14.8","0","","","NA","32.6","0","NA","4.0","2","","","NA","504.4","0.0"
"-115.067","51.083","BOW VALLEY","3050778","AB","0.0","0","NA","12.3","0","-10.5","0","","","NA","28.7","0","NA","","6","","","NA","558.9","0.0"
"-114.482","49.628","CROWSNEST","3051R4R","AB","-0.6","0","NA","9.5","0","-18.1","0","","","NA","10.6","25","NA","","2","","","NA","575.6","0.0"
"-118.030","52.926","JASPER WARDEN","3053536","AB","-2.6","0","NA","9.5","0","-16.6","0","","","NA","10.6","0","NA","5.0","5","","","NA","637.2","0.0"
"-115.035","51.028","KANANASKIS","3053600","AB","0.9","0","7.1","11.5","0","-14.5","0","33.8","0","176.0","42.2","0","223.0","0.0","6","","","NA","531.3","0.0"
"-116.040","52.492","NORDEGG CS","3054843","AB","-0.6","0","NA","11.9","0","-14.9","0","","","NA","9.4","0","NA","6.0","2","","","NA","576.2","0.0"
"-114.416","50.368","PEKISKO","3055119","AB","-0.5","3","NA","10.5","3","-18.3","3","","","NA","28.0","4","NA","16.0","4","","","NA","518.3","0.0"
"-113.809","49.131","WATERTON PARK GATE","3056214","AB","3.0","0","NA","14.3","0","-11.2","0","","","NA","28.2","0","NA","","3","","","NA","464.7","0.0"
"-115.787","54.144","WHITECOURT A","3057376","AB","-5.0","0","NA","10.4","0","-17.7","0","","","NA","","","NA","","","","","NA","711.9","0.0"
"-115.190","50.943","NAKISKA RIDGETOP","305MGFF","AB","-3.9","3","NA","4.0","3","-14.2","3","","","NA","","","NA","","","","","NA","612.8","0.0"
"-113.382","54.635","ATHABASCA AGCM","3060330","AB","-3.2","12","NA","7.3","12","-17.1","12","","","NA","0.9","12","NA","","0","","","NA","401.9","0.0"
"-112.825","54.782","ATMORE AGDM","3060406","AB","-5.7","12","NA","4.5","12","-19.8","12","","","NA","0.8","12","NA","","0","","","NA","450.0","0.0"
"-114.448","54.095","BARRHEAD CS","3060535","AB","-4.7","0","NA","9.8","0","-18.7","0","","","NA","0.9","0","NA","0.0","0","","","NA","702.6","0.0"
"-117.867","53.350","BRULE BLACK CAT","3060903","AB","-1.6","10","7.1","14.0","8","-19.0","2","7.2","0","41.0","7.8","0","42.0","2.0","2","","","NA","411.3","0.0"
"-114.678","54.131","CAMPSIE AUTO","3061201","AB","-5.6","0","NA","8.5","0","-20.1","0","","","NA","0.7","0","NA","","0","","","NA","730.1","0.0"
"-115.894","53.623","CARROT CREEK","3061350","AB","-3.8","12","NA","10.2","12","-17.6","12","","","NA","0.6","12","NA","","0","","","NA","413.5","0.0"
"-116.465","53.579","EDSON","3062239","AB","-4.8","0","NA","11.4","0","-19.6","0","","","NA","0.2","0","NA","","0","","","NA","707.2","0.0"
"-116.453","53.580","EDSON CLIMATE","3062246","AB","-4.5","0","NA","11.4","0","-19.4","0","","","NA","1.3","0","NA","2.0","0","","","NA","697.3","0.0"
"-114.983","53.600","ENTWISTLE","3062451","AB","-2.8","3","6.3","10.0","3","-16.0","3","0.0","3","NA","0.0","3","NA","0.0","0","","","NA","582.5","0.0"
"-115.062","53.614","EVANSBURG2 AGCM","3062476","AB","-4.2","12","NA","10.2","12","-19.5","12","","","NA","0.4","13","NA","","0","","","NA","422.2","0.0"
"-114.769","54.410","FORT ASSINIBOINE AGCM","3062660","AB","-4.7","12","NA","9.9","12","-19.9","12","","","NA","1.7","12","NA","","1","","","NA","431.6","0.0"
"-111.213","56.651","FORT MCMURRAY CS","3062696","AB","-5.4","0","NA","7.6","0","-19.4","0","","","NA","3.5","0","NA","4.0","1","","","NA","726.3","0.0"
"-111.223","56.653","FORT MCMURRAY A","3062697","AB","-5.3","0","NA","7.8","0","-18.9","0","","","NA","","","NA","","","","","NA","721.6","0.0"
"-118.447","53.795","HENDRICKSON CREEK","3063135","AB","-5.2","0","NA","13.3","0","-23.1","0","","","NA","15.5","0","NA","18.0","6","","","NA","719.3","0.0"
"-116.479","55.396","HIGH PRAIRIE AGDM","3063165","AB","-4.6","12","NA","9.4","12","-20.9","12","","","NA","2.1","12","NA","","1","","","NA","429.3","0.0"
"-113.543","54.821","ISLAND LAKE SOUTH","3063600","AB","-4.8","0","NA","6.5","0","-18.2","0","","","NA","1.6","0","NA","","0","","","NA","708.1","0.0"
"-112.981","54.563","KINIKINIK","3063640","AB","-2.7","12","NA","8.7","12","-12.9","12","","","NA","0.8","15","NA","","0","","","NA","392.8","0.0"
"-112.024","54.769","LAC LA BICHE CLIMATE","3063686","AB","-4.9","0","NA","5.7","0","-15.8","0","","","NA","1.3","0","NA","2.0","1","","","NA","710.7","0.0"
"-113.321","54.964","PLEASANT VIEW","3065200","AB","-3.8","12","NA","5.1","12","-14.7","12","","","NA","1.7","12","NA","","0","","","NA","414.1","0.0"
"-111.700","54.500","RICH LAKE AGDM","3065475","AB","-6.1","13","NA","6.5","13","-19.0","13","","","NA","0.4","13","NA","","0","","","NA","433.2","0.0"
"-111.835","53.851","ISPAS","3065712","AB","-4.2","14","NA","6.4","14","-16.6","14","","","NA","3.0","14","NA","","1","","","NA","377.7","0.0"
"-114.777","55.293","SLAVE LAKE","3065995","AB","-5.4","0","NA","6.8","0","-17.6","0","","","NA","0.6","0","NA","","0","","","NA","724.8","0.0"
"-114.777","55.293","SLAVE LAKE RCS","3065997","AB","-5.1","1","NA","7.0","1","-16.6","1","","","NA","1.6","1","NA","","1","","","NA","692.0","0.0"
"-113.520","54.300","TAWATINAW AGCM","3066367","AB","-3.6","12","NA","6.8","12","-14.8","12","","","NA","0.5","12","NA","","0","","","NA","410.9","0.0"
"-118.348","53.386","WILLOW CREEK 1","306GE70","AB","-5.6","6","NA","11.5","5","-21.8","6","","","NA","2.3","11","NA","7.0","1","","","NA","588.8","0.0"
"-113.941","54.683","DUCK LAKE AGCM","306X001","AB","-6.0","12","NA","5.7","12","-22.3","12","","","NA","0.9","12","NA","","0","","","NA","456.6","0.0"
"-117.236","55.577","BALLATER AGCM","3070495","AB","-3.8","12","NA","8.7","12","-18.8","12","","","NA","1.9","12","NA","","1","","","NA","414.3","0.0"
"-119.396","55.197","BEAVERLODGE RCS","3070600","AB","-2.9","0","NA","9.9","0","-16.1","0","","","NA","3.6","0","NA","1.0","3","","","NA","646.7","0.0"
"-117.933","56.529","CLEAR HILLS AGCM","3071661","AB","-3.9","12","NA","10.7","12","-22.1","12","","","NA","3.4","12","NA","","1","","","NA","415.4","0.0"
"-117.543","56.715","DEADWOOD AGCM","3071957","AB","-3.0","12","NA","9.7","12","-17.4","12","","","NA","3.7","12","NA","","1","","","NA","399.2","0.0"
"-110.439","58.981","EGG ISLAND","3072246","AB","-10.2","28","NA","1.0","28","-15.0","28","","","NA","","","NA","","","","","NA","84.5","0.0"
"-118.439","56.081","FAIRVIEW AGDM","3072525","AB","-4.7","12","NA","7.7","12","-18.7","12","","","NA","4.0","12","NA","","1","","","NA","430.9","0.0"
"-111.117","58.767","FORT CHIPEWYAN","3072655","AB","-8.7","0","NA","8.3","0","-24.7","0","","","NA","0.9","0","NA","","0","","","NA","826.3","0.0"
"-111.117","58.767","FORT CHIPEWYAN RCS","3072659","AB","-8.7","0","NA","8.3","0","-24.4","0","","","NA","4.5","0","NA","28.0","1","","","NA","828.8","0.0"
"-116.040","58.382","FORT VERMILION","3072723","AB","-10.5","0","NA","9.1","0","-23.2","0","","","NA","9.3","0","NA","20.0","3","","","NA","883.0","0.0"
"-118.885","55.180","GRANDE PRAIRIE A","3072921","AB","-5.0","2","NA","8.7","2","-16.7","2","3.2","0","NA","4.2","0","NA","","1","","","NA","667.7","0.0"
"-117.298","57.265","HAWK HILLS AGCM","3073071","AB","-5.8","12","NA","8.0","12","-21.4","12","","","NA","2.0","12","NA","","1","","","NA","451.9","0.0"
"-117.165","58.622","HIGH LEVEL A","3073140","AB","-11.7","0","NA","9.1","0","-25.7","0","","","NA","2.8","0","NA","","0","","","NA","919.5","0.0"
"-117.164","58.631","HIGH LEVEL","3073148","AB","-12.2","0","NA","9.1","0","-27.1","0","","","NA","6.2","0","NA","15.0","1","","","NA","935.2","0.0"
"-117.120","55.913","JEAN COTE AGCM","3073535","AB","-3.1","12","NA","6.7","12","-16.8","12","","","NA","2.0","12","NA","","1","","","NA","401.1","0.0"
"-117.677","57.788","KEG RIVER AGCM","3073644","AB","-6.0","12","NA","11.2","12","-26.4","12","","","NA","4.1","22","NA","","1","","","NA","456.6","0.0"
"-116.343","58.172","LA CRETE AGCM","3073730","AB","-8.0","12","NA","9.7","12","-23.0","12","","","NA","4.9","12","NA","","2","","","NA","494.1","0.0"
"-119.255","55.422","LA GLACE AGCM","3073740","AB","-5.3","13","NA","9.1","13","-17.9","13","","","NA","5.8","15","NA","","2","","","NA","419.3","0.0"
"-117.451","56.974","MANNING AGDM","3074190","AB","-5.9","12","NA","9.0","12","-19.7","12","","","NA","","","NA","","","","","NA","454.2","0.0"
"-119.745","56.314","CLEARDALE AGDM","3074935","AB","-5.3","12","NA","8.2","12","-17.4","12","","","NA","7.8","12","NA","","2","","","NA","442.2","0.0"
"-117.448","56.227","PEACE RIVER A","3075041","AB","-5.7","0","NA","6.6","0","-18.3","0","3.4","0","NA","3.4","0","NA","0.0","1","","","NA","735.0","0.0"
"-117.452","56.193","ROMA","3075043","AB","-4.5","0","NA","6.9","0","-17.1","0","","","NA","3.4","0","NA","0.0","1","","","NA","699.0","0.0"
"-118.293","55.621","PEORIA AGDM","3075160","AB","-4.8","12","NA","8.8","12","-18.9","12","","","NA","5.2","12","NA","","2","","","NA","433.5","0.0"
"-115.278","56.552","RED EARTH","3075488","AB","-4.7","0","NA","8.0","0","-18.9","0","","","NA","","","NA","1.0","","","","NA","704.2","0.0"
"-116.481","58.452","ROCKY LANE AGCM","3075550","AB","-10.5","13","NA","10.1","13","-25.4","13","","","NA","7.0","13","NA","","1","","","NA","513.5","0.0"
"-118.668","55.777","RYCROFT AGCM","3075601","AB","-3.5","12","NA","12.5","12","-18.4","12","","","NA","5.9","12","NA","","2","","","NA","408.6","0.0"
"-119.345","56.076","SAVANNA AGCM","3075770","AB","-3.3","12","NA","9.1","12","-17.0","12","","","NA","6.9","12","NA","","3","","","NA","403.8","0.0"
"-118.408","55.352","TEEPEE CREEK AGCM","3076366","AB","-5.7","12","NA","8.1","12","-19.6","12","","","NA","5.2","12","NA","","2","","","NA","450.5","0.0"
"-116.848","58.021","TOMPKINS LANDING AGCM","3076530","AB","-6.1","12","NA","8.4","12","-22.0","12","","","NA","4.5","12","NA","","3","","","NA","458.6","0.0"
"-117.199","55.098","VALLEYVIEW AGDM","3076680","AB","-3.0","12","NA","7.7","12","-14.8","12","","","NA","3.1","12","NA","","1","","","NA","398.5","0.0"
"-113.866","58.711","GARDEN RIVER","307KPFP","AB","-11.1","9","NA","2.6","9","-25.0","9","","","NA","","","NA","16.0","","","","NA","639.9","0.0"
"-110.283","54.417","COLD LAKE A","3081680","AB","-6.7","0","7.3","7.1","0","-19.6","0","2.0","0","8.0","1.4","0","8.0","0.0","1","","","NA","764.5","0.0"
"-110.868","54.367","DUPRE AGCM","3081690","AB","-6.0","12","NA","8.3","12","-19.3","12","","","NA","0.8","12","NA","","0","","","NA","455.3","0.0"
"-110.323","54.177","BEAVERDAM AGCM","308X001","AB","-4.3","12","NA","6.2","12","-15.8","12","","","NA","0.4","12","NA","","0","","","NA","423.4","0.0"
