"Long","Lat","Stn_Name","Clim_ID","Prov_or_Ter","Tm","DwTm","D","Tx","DwTx","Tn","DwTn","S","DwS","S%N","P","DwP","P%N","S_G","Pd","BS","DwBS","BS%","HDD","CDD"
"-112.967","54.283","ABEE AGDM","3010010","AB","16.3","9","NA","28.4","9","4.3","9","","","NA","84.0","20","NA","","6","","","NA","47.0","8.6"
"-111.181","53.113","ALBERT HALL AGCM","3010060","AB","16.7","15","NA","28.3","15","4.0","15","","","NA","18.6","18","NA","","3","","","NA","29.3","8.5"
"-111.779","52.315","ALLIANCE AGCM","3010162","AB","17.7","8","NA","32.3","8","5.4","8","","","NA","42.6","8","NA","","8","","","NA","27.0","20.8"
"-112.279","53.917","ANDREW AGDM","3010237","AB","16.8","8","NA","28.4","8","6.1","8","","","NA","77.2","8","NA","","8","","","NA","37.8","10.5"
"-111.465","52.582","BELLSHILL AGCM","3010650","AB","17.8","8","NA","30.4","8","8.2","8","","","NA","98.6","8","NA","","5","","","NA","23.2","18.2"
"-110.101","52.124","BODO AGDM","3010730","AB","18.1","8","NA","34.6","8","5.1","8","","","NA","50.4","8","NA","","7","","","NA","23.6","25.9"
"-114.483","53.167","BRETON","3010815","AB","","","NA","","","","","0.0","2","NA","57.4","2","NA","0.0","11","","","NA","",""
"-114.441","53.089","BRETON PLOTS","3010816","AB","17.1","8","NA","28.9","8","7.1","8","","","NA","38.0","8","NA","","7","","","NA","31.9","10.6"
"-113.922","53.931","BUSBY AGCM","3010979","AB","17.1","8","NA","29.8","8","6.8","8","","","NA","98.6","8","NA","","6","","","NA","32.5","10.7"
"-110.510","52.334","CADOGAN AGCM","3010992","AB","18.3","8","NA","35.4","8","6.4","8","","","NA","44.2","8","NA","","7","","","NA","21.6","27.5"
"-113.863","53.290","CALMAR","3011120","AB","","","","26.0","30","12.5","30","0.0","30","NA","0.6","30","NA","","0","","","NA","",""
"-112.817","53.050","CAMROSE","3011240","AB","16.5","2","-0.3","28.1","2","7.0","2","","","NA","113.0","2","NA","","11","","","NA","56.2","12.0"
"-110.713","51.937","CONSORT AGDM","3011815","AB","18.3","8","NA","34.5","8","6.0","8","","","NA","31.4","8","NA","","5","","","NA","22.1","29.4"
"-111.449","52.074","CORONATION CLIMATE","3011887","AB","17.6","2","NA","34.7","2","5.0","2","","","NA","37.5","2","NA","","8","","","NA","44.6","32.4"
"-113.903","52.733","CRESTOMERE AGCM","3011892","AB","16.4","8","NA","28.3","8","5.0","8","","","NA","23.0","8","NA","","6","","","NA","43.3","5.8"
"-113.950","52.750","DAKOTA WEST","3011953","AB","16.6","0","0.6","29.0","0","5.0","0","0.0","0","NA","40.8","0","36.0","0.0","11","","","NA","53.6","10.6"
"-113.176","52.183","DELBURNE AGCM","3012050","AB","17.5","8","NA","31.2","8","7.6","8","","","NA","28.1","8","NA","","7","","","NA","30.2","18.5"
"-110.588","53.659","DEWBERRY AGCM","3012073","AB","17.3","8","NA","29.5","8","6.4","8","","","NA","24.1","8","NA","","3","","","NA","33.8","18.0"
"-110.433","52.778","EDGERTON AGCM","3012192","AB","18.1","8","NA","33.2","8","6.0","8","","","NA","23.9","8","NA","","3","","","NA","23.8","27.1"
"-113.606","53.307","EDMONTON INTERNATIONAL CS","3012206","AB","16.0","0","NA","29.3","0","3.9","0","","","NA","126.2","0","NA","","7","","","NA","71.5","10.1"
"-113.517","53.573","EDMONTON BLATCHFORD","3012209","AB","18.6","0","NA","30.5","0","8.8","0","","","NA","92.5","1","NA","","13","","","NA","28.4","48.5"
"-113.579","53.310","EDMONTON INTL A","3012216","AB","16.1","0","NA","29.2","0","3.7","0","0.0","0","NA","128.8","0","NA","","8","","","NA","70.6","10.2"
"-113.538","53.490","EDMONTON SOUTH CAMPUS","3012220","AB","18.8","16","NA","29.4","16","10.7","16","","","NA","34.0","16","NA","","4","","","NA","1.6","13.2"
"-113.856","53.668","EDMONTON VILLENEUVE A","3012229","AB","16.8","0","NA","29.4","0","5.4","0","","","NA","126.6","0","NA","","10","","","NA","53.2","17.4"
"-114.108","53.548","EDMONTON STONY PLAIN","301222F","AB","18.0","0","0.9","30.5","0","7.0","0","0.0","0","NA","134.1","0","131.0","0.0","14","","","NA","37.2","35.9"
"-112.868","53.683","ELK ISLAND NAT PARK","3012275","AB","16.9","0","-0.1","28.2","0","7.5","0","","","NA","110.0","0","98.0","","12","","","NA","52.4","17.7"
"-111.000","52.967","FABYAN","3012515","AB","17.1","0","0.1","31.0","0","6.0","0","0.0","0","NA","68.8","0","95.0","0.0","10","","","NA","52.8","24.2"
"-112.858","52.744","FERINTOSH AGCM","3012590","AB","16.4","8","NA","27.5","8","4.1","8","","","NA","63.9","8","NA","","7","","","NA","44.9","7.0"
"-111.813","52.041","FLEET AGCM","3012635","AB","18.0","11","NA","33.0","11","6.1","11","","","NA","41.1","11","NA","","5","","","NA","19.8","20.1"
"-112.120","52.467","FORESTBURG PLANT SITE","3012652","AB","18.2","8","-0.1","30.5","8","8.0","8","0.0","8","NA","60.6","8","NA","0.0","11","","","NA","24.6","30.3"
"-112.123","52.548","FORESTBURG AGCM","3012653","AB","17.2","8","NA","29.4","8","5.7","8","","","NA","57.2","8","NA","","6","","","NA","29.7","12.4"
"-110.621","53.071","GILT EDGE NORTH AGCM","3012790","AB","17.6","8","NA","31.7","8","5.1","8","","","NA","49.3","8","NA","","5","","","NA","30.2","20.6"
"-114.320","53.295","ST. FRANCIS","3012799","AB","18.1","8","NA","29.6","8","10.3","8","","","NA","55.2","8","NA","","9","","","NA","17.2","19.8"
"-112.278","52.987","GLADSTONE AGCM","3012810","AB","16.9","8","NA","28.2","8","4.4","8","","","NA","61.2","9","NA","","5","","","NA","35.2","10.9"
"-114.539","53.833","GLENEVIS AGCM","3012818","AB","17.6","8","NA","30.7","8","8.4","8","","","NA","","","NA","","","","","NA","23.3","13.4"
"-110.803","52.113","GOOSEBERRY LAKE AGCM","3012871","AB","17.5","8","NA","34.5","8","1.6","8","","","NA","39.4","8","NA","","6","","","NA","31.3","20.1"
"-112.164","52.116","HALKIRK AGCM","3012999","AB","17.2","8","NA","31.6","8","5.4","8","","","NA","75.1","9","NA","","9","","","NA","31.9","14.4"
"-111.212","51.780","HEMARUKA AGCM","3013140","AB","18.7","14","NA","35.5","14","5.2","14","","","NA","10.2","14","NA","","2","","","NA","17.2","29.3"
"-112.246","53.185","HOLDEN AGDM","3013340","AB","17.7","11","NA","28.2","11","7.5","11","","","NA","102.3","18","NA","","4","","","NA","19.9","14.0"
"-110.784","52.578","HUGHENDEN AGCM","3013362","AB","18.0","8","NA","32.5","8","4.5","8","","","NA","60.9","8","NA","","5","","","NA","23.7","24.8"
"-111.872","52.848","KILLAM AGDM","3013640","AB","16.8","8","NA","28.7","8","4.9","8","","","NA","","","NA","","","","","NA","38.3","10.8"
"-111.113","52.290","KESSLER AGCM","3013644","AB","17.7","8","NA","34.5","8","3.2","8","","","NA","51.3","9","NA","","6","","","NA","27.9","22.0"
"-111.548","53.047","KINSELLA RESEARC STATION","3013647","AB","16.8","8","NA","29.5","8","3.6","8","","","NA","76.5","8","NA","","6","","","NA","42.1","15.1"
"-110.416","53.353","KITSCOTY AGCM","3013660","AB","17.3","8","NA","29.5","8","6.5","8","","","NA","23.6","8","NA","","3","","","NA","34.5","17.4"
"-113.474","54.003","LEGAL AGCM","3013790","AB","17.4","8","NA","33.7","8","8.7","8","","","NA","107.9","8","NA","","7","","","NA","29.9","15.4"
"-110.579","53.943","LINDBERGH AGDM","3013921","AB","18.9","8","NA","27.2","8","10.4","8","","","NA","39.5","8","NA","","6","","","NA","7.0","28.4"
"-110.073","53.309","LLOYDMINSTER","3013959","AB","16.9","0","NA","29.4","0","5.7","0","","","NA","38.2","0","NA","","5","","","NA","58.2","22.9"
"-110.073","53.309","LLOYDMINSTER A","3013961","AB","17.1","3","0.1","29.0","3","6.0","3","0.0","3","NA","34.8","3","NA","0.0","7","","","NA","47.5","21.0"
"-111.255","53.456","MANNVILLE AGCM","3014195","AB","17.2","8","NA","29.6","8","7.4","8","","","NA","24.8","8","NA","","5","","","NA","34.3","16.5"
"-110.550","52.017","MONITOR","3014600","AB","","","NA","","","","","0.0","0","NA","57.4","0","88.0","0.0","8","","","NA","",""
"-113.165","53.262","NEW SAREPTA AGCM","3014795","AB","17.9","10","NA","28.9","10","8.8","10","","","NA","125.1","10","NA","","5","","","NA","16.3","13.8"
"-113.350","53.650","OLIVER AGDM","3014921","AB","17.4","15","NA","28.9","15","7.7","15","","","NA","40.9","15","NA","","3","","","NA","11.8","2.7"
"-112.879","53.995","RADWAY AGCM","3015346","AB","17.3","14","NA","27.9","14","8.3","14","","","NA","","","NA","","","","","NA","23.5","11.1"
"-111.726","53.425","RANFURLY AUTO","3015401","AB","17.3","0","NA","29.4","0","7.1","0","","","NA","73.4","0","NA","","9","","","NA","48.5","25.3"
"-110.343","52.587","RIBSTONE SOUTH AGCM","3015480","AB","17.7","8","NA","34.9","8","5.0","8","","","NA","38.7","8","NA","","5","","","NA","30.0","24.0"
"-110.102","53.019","RIVERCOURSE AGCM","3015501","AB","17.3","8","NA","32.6","8","6.2","8","","","NA","14.1","9","NA","","2","","","NA","35.6","19.6"
"-114.912","52.421","ROCKY MTN HOUSE (AUT)","3015523","AB","15.3","0","NA","29.8","0","1.6","0","","","NA","90.5","0","NA","","12","","","NA","88.1","5.4"
"-112.422","52.792","ROSALIND AGCM","3015600","AB","17.3","8","NA","28.9","8","5.7","8","","","NA","50.0","8","NA","","7","","","NA","28.6","11.9"
"-111.453","54.282","ST. LINA AGCM","3015673","AB","16.8","8","NA","27.8","8","6.1","8","","","NA","41.7","13","NA","","6","","","NA","36.2","9.4"
"-111.272","54.011","ST. PAUL AGCM","3015676","AB","17.0","8","NA","28.1","8","6.2","8","","","NA","50.2","8","NA","","8","","","NA","34.9","12.3"
"-110.755","51.590","SEDALIA AGCM","3015797","AB","19.5","15","NA","36.3","15","5.4","15","","","NA","16.8","16","NA","","3","","","NA","9.5","33.9"
"-112.539","53.333","SHONTS AGCM","3015900","AB","17.1","11","NA","27.8","11","5.7","11","","","NA","175.8","11","NA","","5","","","NA","27.6","9.1"
"-112.499","54.278","SMOKY LAKE AGDM","3016022","AB","17.0","8","NA","28.7","8","6.8","8","","","NA","84.9","8","NA","","9","","","NA","35.8","13.0"
"-111.683","51.816","SPONDIN AGCM","3016070","AB","18.3","11","NA","35.2","11","4.8","11","","","NA","35.4","11","NA","","5","","","NA","16.9","23.6"
"-112.596","52.347","STETTLER AGDM","3016124","AB","17.5","8","NA","30.4","8","7.2","8","","","NA","40.4","15","NA","","7","","","NA","27.6","15.5"
"-113.895","53.217","THORSBY AGCM","3016441","AB","17.3","8","NA","29.4","8","6.2","8","","","NA","74.9","8","NA","","10","","","NA","28.2","12.4"
"-114.718","53.439","TOMAHAWK AGDM","3016505","AB","17.5","8","NA","29.3","8","8.1","8","","","NA","87.5","9","NA","","9","","","NA","24.5","12.1"
"-110.081","53.664","TULLIBY LAKE AGCM","3016593","AB","17.3","8","NA","29.5","8","4.6","8","","","NA","22.3","8","NA","","4","","","NA","32.6","17.0"
"-113.033","53.500","UNCAS","3016650","AB","","","NA","","","","","0.0","0","NA","134.4","0","NA","0.0","12","","","NA","",""
"-111.678","53.625","TWO HILLS AGDM","3016655","AB","17.7","8","NA","29.3","8","8.0","8","","","NA","53.5","8","NA","","8","","","NA","25.9","20.0"
"-110.882","53.344","VERMILION AGDM","3016802","AB","17.1","8","NA","30.6","8","4.2","8","","","NA","42.4","8","NA","","5","","","NA","36.7","16.9"
"-111.732","53.182","VIKING AGCM","3016841","AB","17.6","8","NA","28.8","8","7.3","8","","","NA","52.7","8","NA","","7","","","NA","27.4","19.0"
"-111.921","54.130","VILNA AGCM","3016852","AB","16.8","8","NA","28.4","8","4.9","8","","","NA","65.0","8","NA","","9","","","NA","38.3","11.3"
"-112.098","53.505","VEGREVILLE","3016GF0","AB","16.7","0","0.1","29.6","0","5.7","0","","","NA","101.2","0","133.0","","9","","","NA","55.9","16.8"
"-113.444","52.980","WETASKIWIN AGCM","3017282","AB","16.7","8","NA","28.6","8","5.5","8","","","NA","51.6","16","NA","","7","","","NA","39.3","10.1"
"-111.224","51.491","YOUNGSTOWN AGCM","3017705","AB","18.8","8","NA","36.1","8","6.0","8","","","NA","43.7","8","NA","","8","","","NA","16.7","34.4"
"-114.108","53.547","EDMONTON STONY PLAIN CS","301A001","AB","17.2","2","NA","29.4","2","6.5","2","","","NA","130.5","2","NA","","13","","","NA","45.3","23.0"
"-110.206","51.670","ESTHER 1","301B460","AB","18.1","0","NA","35.9","0","3.3","0","","","NA","43.5","0","NA","","3","","","NA","35.3","38.5"
"-111.096","52.829","WAINWRIGHT CFB AIRFIELD 21","301S001","AB","17.9","2","NA","32.1","2","6.6","2","","","NA","61.4","9","NA","","10","","","NA","36.0","31.7"
"-113.821","54.308","PIBROCH AGCM","301X001","AB","16.5","8","NA","28.3","8","6.6","8","","","NA","119.6","8","NA","","6","","","NA","41.6","6.9"
"-113.099","53.843","REDWATER INDUSTRIAL AGCM","301X002","AB","18.8","15","NA","30.1","15","11.1","15","","","NA","46.5","16","NA","","3","","","NA","2.8","16.3"
"-110.025","53.358","LLOYDMINSTER LITE","301X003","AB","16.7","8","NA","28.7","8","4.3","8","","","NA","15.2","8","NA","","4","","","NA","41.9","11.6"
"-110.317","51.066","ACADIA VALLEY","3020035","AB","20.0","10","NA","37.2","10","7.1","10","","","NA","32.2","10","NA","","5","","","NA","8.1","50.4"
"-111.006","50.810","ATLEE AGCM","3020405","AB","20.6","8","NA","37.4","8","8.9","8","","","NA","13.7","8","NA","","3","","","NA","3.9","64.6"
"-113.357","51.379","BEISEKER AGCM","3020610","AB","17.6","8","NA","35.3","8","0.7","8","","","NA","20.3","8","NA","","7","","","NA","29.2","19.7"
"-112.803","51.998","BIG VALLEY AGCM","3020679","AB","18.2","8","NA","33.3","8","7.0","8","","","NA","36.9","8","NA","","8","","","NA","26.0","29.5"
"-110.686","50.798","BUFFALO AGCM","3020950","AB","20.5","14","NA","38.3","14","8.2","14","","","NA","6.8","15","NA","","2","","","NA","2.8","46.0"
"-111.221","51.024","CABIN LAKE AGCM","3021000","AB","19.9","8","NA","37.5","8","5.4","8","","","NA","","","NA","","","","","NA","8.7","51.6"
"-110.797","51.067","CAPPON","3021200","AB","19.2","8","NA","36.5","8","4.3","8","","","NA","72.3","8","NA","","6","","","NA","13.7","40.2"
"-110.824","51.276","CEREAL AGCM","3021463","AB","19.4","14","NA","35.9","14","7.8","14","","","NA","50.0","14","NA","","5","","","NA","10.6","33.8"
"-112.252","51.775","CRAIGMYLE AGCM","3021912","AB","17.8","10","NA","34.9","10","5.1","10","","","NA","49.9","11","NA","","5","","","NA","24.7","21.2"
"-112.677","51.445","DRUMHELLER EAST","30221LG","AB","20.3","1","NA","36.9","1","7.3","1","","","NA","47.8","1","NA","","10","","","NA","14.3","82.5"
"-112.097","51.053","FINNEGAN AGCM","3022650","AB","19.6","8","NA","37.0","8","5.3","8","","","NA","14.7","16","NA","","3","","","NA","10.7","47.1"
"-112.135","51.453","HAND HILLS AGCM","3022990","AB","18.1","10","NA","33.6","10","6.4","10","","","NA","42.5","10","NA","","6","","","NA","25.2","26.4"
"-114.486","52.310","HESPERO AGCM","3023200","AB","16.2","8","NA","30.8","8","3.3","8","","","NA","52.9","8","NA","","8","","","NA","47.2","5.3"
"-112.500","51.183","HUSSAR AGDM","3023402","AB","18.5","8","NA","32.9","8","7.2","8","","","NA","31.4","9","NA","","5","","","NA","18.0","30.1"
"-110.359","51.913","KIRRIEMUIR AGCM","3023660","AB","18.2","8","NA","35.0","8","3.8","8","","","NA","39.3","8","NA","","5","","","NA","23.0","26.8"
"-113.756","52.449","LACOMBE CDA 2","3023722","AB","16.5","1","NA","29.2","1","5.8","1","","","NA","53.2","1","NA","","11","","","NA","56.7","12.8"
"-114.473","52.553","LEEDALE AGDM","3023740","AB","15.6","8","NA","28.7","8","3.0","8","","","NA","40.7","11","NA","","5","","","NA","58.7","3.1"
"-113.656","51.619","LINDEN AGCM","3023850","AB","16.4","15","NA","30.4","15","2.3","15","","","NA","51.5","15","NA","","7","","","NA","29.7","3.7"
"-110.341","49.458","LODGE CREEK","3023900","AB","19.0","8","NA","37.0","8","3.6","8","","","NA","7.4","8","NA","","3","","","NA","16.1","39.1"
"-112.675","51.660","MORRIN AGDM","3024668","AB","18.2","8","NA","35.6","8","5.1","8","","","NA","37.0","8","NA","","6","","","NA","23.3","27.2"
"-114.085","51.759","OLDS AGDM","3024925","AB","16.4","8","NA","28.7","8","5.5","8","","","NA","68.3","8","NA","","7","","","NA","42.8","6.7"
"-110.350","51.383","OYEN AGDM","3024965","AB","18.7","8","NA","36.4","8","4.1","8","","","NA","21.0","9","NA","","2","","","NA","16.6","33.6"
"-111.621","50.740","PATRICIA AGCM","3025013","AB","20.7","10","NA","38.3","10","7.0","10","","","NA","14.1","10","NA","","2","","","NA","4.2","61.4"
"-111.705","51.125","POLLOCKVILLE AGDM","3025243","AB","19.5","8","NA","36.9","8","4.0","8","","","NA","24.3","8","NA","","4","","","NA","12.5","46.2"
"-113.600","52.433","PRENTISS","3025297","AB","16.3","3","NA","28.4","3","7.0","3","","","NA","43.6","3","NA","","10","","","NA","56.5","9.7"
"-113.894","52.182","RED DEER REGIONAL A","3025484","AB","16.3","0","NA","28.8","0","5.6","0","","","NA","25.6","0","NA","","9","","","NA","61.9","10.2"
"-113.620","53.692","ST. ALBERT RESEARCH STATION","3025750","AB","16.6","0","NA","29.4","0","4.2","0","","","NA","101.4","0","NA","","10","","","NA","56.1","12.1"
"-110.091","50.307","SCHULER AGDM","3025768","AB","20.0","8","NA","37.9","8","6.7","8","","","NA","17.8","8","NA","","1","","","NA","4.7","50.0"
"-111.646","51.463","SHEERNESS AGCM","3025890","AB","18.5","16","NA","32.4","16","9.3","16","","","NA","24.2","18","NA","","5","","","NA","7.9","14.9"
"-111.388","51.301","SUNNYNOOK AGCM","3026264","AB","17.6","16","NA","33.2","16","2.1","16","","","NA","34.6","17","NA","","6","","","NA","14.6","9.0"
"-113.206","51.768","THREE HILLS","3026479","AB","17.1","8","NA","34.0","8","2.8","8","","","NA","30.4","8","NA","","5","","","NA","35.3","15.4"
"-111.955","50.895","VERGER","3026800","AB","19.6","8","NA","35.6","8","4.6","8","","","NA","20.3","10","NA","","4","","","NA","10.6","47.2"
"-114.683","51.778","SUNDRE A","3026KNQ","AB","15.2","0","NA","29.8","0","0.2","0","","","NA","75.0","0","NA","","8","","","NA","91.0","5.3"
"-113.591","51.936","WIMBORNE AGCM","3027582","AB","17.1","8","NA","30.4","8","4.1","8","","","NA","57.3","8","NA","","8","","","NA","31.3","10.4"
"-113.434","49.528","ARDENVILLE","3030200","AB","19.0","8","NA","36.4","8","0.0","8","","","NA","6.3","12","NA","","3","","","NA","19.8","43.2"
"-114.013","50.512","AZURE","3030450","AB","18.7","11","NA","34.9","10","4.8","11","","","NA","25.2","16","NA","","4","","","NA","11.5","25.4"
"-112.300","49.800","BARNWELL AGDM","3030525","AB","20.1","8","NA","36.8","8","5.8","8","","","NA","18.0","8","NA","","5","","","NA","6.7","54.4"
"-113.224","50.026","BARONS AGCM","3030529","AB","18.9","10","NA","35.9","10","4.7","10","","","NA","26.0","10","NA","","5","","","NA","14.4","33.4"
"-112.465","50.893","BASSANO AGCM","3030540","AB","19.6","10","NA","35.8","10","6.6","10","","","NA","12.2","11","NA","","4","","","NA","9.8","43.4"
"-114.152","50.707","BLACK DIAMOND","3030680","AB","17.1","8","NA","34.5","8","3.1","8","","","NA","23.7","8","NA","","5","","","NA","33.4","11.8"
"-113.640","50.546","BLACKIE AGCM","3030690","AB","18.8","10","NA","34.7","10","2.7","10","","","NA","17.4","10","NA","","2","","","NA","14.8","31.1"
"-113.050","49.567","BLOOD TRIBE AGDM","3030720","AB","18.9","8","NA","37.2","8","3.8","8","","","NA","4.5","9","NA","","2","","","NA","17.4","38.3"
"-111.450","49.734","BOW ISLAND","3030768","AB","19.8","1","NA","36.9","1","7.4","1","","","NA","14.8","1","NA","","2","","","NA","13.2","67.1"
"-113.817","49.617","BROCKET AGDM","3030830","AB","18.9","8","NA","35.6","8","5.6","8","","","NA","49.0","8","NA","","3","","","NA","14.8","35.5"
"-110.484","50.339","BULL SPRINGS AGCM","3030879","AB","20.7","8","NA","38.3","8","8.2","8","","","NA","34.3","9","NA","","3","","","NA","2.6","63.9"
"-111.849","50.555","BROOKS","3030QLP","AB","20.2","1","NA","36.5","1","6.2","1","","","NA","17.4","1","NA","","3","","","NA","11.0","76.8"
"-114.013","51.123","CALGARY INTL A","3031092","AB","18.2","0","NA","35.1","0","6.7","0","0.0","0","NA","42.9","0","NA","","10","","","NA","33.4","41.1"
"-114.000","51.109","CALGARY INT'L CS","3031094","AB","17.8","0","NA","35.1","0","6.0","0","","","NA","41.5","2","NA","","8","","","NA","40.0","33.9"
"-114.371","51.105","CALGARY SPRINGBANK A","3031109","AB","15.9","1","NA","32.3","1","2.2","1","","","NA","78.8","1","NA","","11","","","NA","74.5","10.3"
"-113.286","49.201","CARDSTON","3031322","AB","18.4","3","NA","33.6","3","5.2","3","","","NA","37.1","3","NA","","5","","","NA","25.6","36.5"
"-113.376","49.001","CARWAY","3031402","AB","17.0","12","NA","34.3","12","4.1","12","","","NA","23.2","12","NA","","2","","","NA","34.9","15.2"
"-113.350","50.282","CHAMPION AGDM","3031480","AB","18.9","12","NA","35.9","12","4.3","12","","","NA","24.7","12","NA","","6","","","NA","15.3","32.9"
"-113.639","50.004","CLARESHOLM","3031640","AB","18.4","0","NA","35.4","0","3.9","0","","","NA","52.5","0","NA","0.0","7","","","NA","30.4","44.1"
"-114.222","51.076","COP UPPER","3031875","AB","17.7","0","NA","33.1","0","7.1","0","","","NA","81.1","0","NA","","10","","","NA","44.0","33.6"
"-112.433","50.183","ENCHANT AGDM","3032422","AB","19.4","8","NA","33.9","8","0.0","8","","","NA","26.4","9","NA","","5","","","NA","12.5","43.6"
"-111.054","49.553","ETZIKOM AGCM","3032450","AB","20.3","8","NA","39.8","8","4.7","8","","","NA","33.7","9","NA","","4","","","NA","7.3","59.2"
"-112.033","49.800","FINCASTLE AGDM","3032550","AB","20.8","10","NA","37.7","10","6.5","10","","","NA","6.5","21","NA","","3","","","NA","1.4","60.8"
"-111.486","49.483","FOREMOST AGDM","3032642","AB","20.3","8","NA","38.5","8","4.7","8","","","NA","6.3","8","NA","","3","","","NA","7.8","60.5"
"-113.379","49.786","FORT MACLEOD AGCM","3032683","AB","18.8","10","NA","34.7","10","4.9","10","","","NA","17.4","10","NA","","2","","","NA","13.8","31.1"
"-112.941","50.934","GLEICHEN AGCM","3032801","AB","18.9","8","NA","35.7","8","6.0","8","","","NA","11.5","8","NA","","3","","","NA","13.6","34.3"
"-111.733","49.874","GRASSY LAKE","3032927","AB","20.6","8","NA","37.3","8","7.4","8","","","NA","4.5","8","NA","","2","","","NA","2.4","62.5"
"-114.292","50.869","PRIDDIS OBSERVATORY","3033505","AB","14.4","27","NA","28.2","27","5.6","27","","","NA","3.6","27","NA","","1","","","NA","16.8","2.2"
"-110.261","49.989","IRVINE AGCM","3033550","AB","21.3","14","NA","38.9","14","8.8","14","","","NA","15.9","15","NA","","2","","","NA","1.3","57.9"
"-113.631","51.191","KEOMA AGCM","3033620","AB","17.4","8","NA","35.6","8","2.4","8","","","NA","49.7","10","NA","","7","","","NA","31.0","16.2"
"-112.299","50.600","LATHOM AGCM","3033770","AB","20.0","10","NA","36.3","10","7.0","10","","","NA","42.4","10","NA","","2","","","NA","8.6","51.3"
"-112.799","49.630","LETHBRIDGE","3033875","AB","19.4","0","NA","37.2","0","4.8","0","","","NA","17.3","0","NA","","7","","","NA","20.8","63.9"
"-112.763","49.647","LETHBRIDGE AGTECH AGCM","3033877","AB","19.1","8","NA","35.8","8","5.7","8","","","NA","9.0","16","NA","","2","","","NA","12.9","37.8"
"-112.768","49.695","LETHBRIDGE CDA","3033890","AB","20.3","1","NA","36.9","1","8.2","1","","","NA","","","NA","","","","","NA","9.1","78.8"
"-112.783","49.700","LETHBRIDGE CDA 2","3033892","AB","","","NA","","","","","0.0","2","NA","23.2","2","NA","0.0","6","","","NA","",""
"-112.750","49.683","LETHBRIDGE DEMO FARM AGDM","3033897","AB","19.6","8","NA","35.2","8","7.1","8","","","NA","15.6","9","NA","","4","","","NA","8.0","44.1"
"-110.721","50.019","MEDICINE HAT","3034479","AB","21.2","0","NA","39.1","0","8.7","0","","","NA","0.0","10","NA","","0","","","NA","5.7","105.4"
"-110.717","50.025","MEDICINE HAT RCS","3034485","AB","21.4","1","NA","38.9","1","8.7","1","","","NA","37.6","1","NA","","5","","","NA","6.1","107.6"
"-113.349","50.673","MOSSLEIGH AGCM","3034577","AB","18.0","10","NA","36.3","10","0.0","10","","","NA","27.9","11","NA","","4","","","NA","22.2","22.3"
"-114.099","51.369","NIER AGDM","3034795","AB","16.4","8","NA","33.4","8","3.4","8","","","NA","52.0","8","NA","","7","","","NA","49.2","12.5"
"-113.997","49.521","PINCHER CREEK","3035198","AB","17.7","0","NA","35.6","0","3.4","0","","","NA","23.0","0","NA","","5","","","NA","45.3","36.7"
"-114.005","49.522","PINCHER CREEK CLIMATE","3035208","AB","17.7","2","NA","35.6","2","3.9","2","","","NA","13.4","2","NA","","4","","","NA","44.7","35.5"
"-112.983","50.606","QUEENSTOWN","3035340","AB","19.6","0","1.7","36.0","0","6.5","0","0.0","0","NA","21.1","0","39.0","0.0","5","","","NA","21.7","71.5"
"-112.803","50.598","QUEENSTOWN","3035342","AB","19.2","2","NA","36.5","2","5.1","2","","","NA","17.2","2","NA","","3","","","NA","26.7","60.3"
"-112.117","50.367","RAINIER AGCM","3035355","AB","20.5","8","NA","36.7","8","7.1","8","","","NA","16.7","9","NA","","2","","","NA","4.8","61.4"
"-111.213","50.099","RALSTON AGCM","3035362","AB","21.6","10","NA","38.7","10","8.3","10","","","NA","11.4","11","NA","","3","","","NA","0.3","75.3"
"-112.683","49.483","RAYMOND AGDM","3035422","AB","19.6","9","NA","37.9","9","4.8","9","","","NA","7.8","11","NA","","2","","","NA","10.7","45.8"
"-111.701","50.265","ROLLING HILLS AGCM","3035530","AB","20.4","10","NA","38.7","10","3.8","10","","","NA","20.3","10","NA","","2","","","NA","6.4","56.6"
"-112.050","50.833","ROSEMARY AGDM","3035650","AB","19.3","8","NA","35.3","8","3.5","8","","","NA","29.5","8","NA","","3","","","NA","11.4","41.9"
"-110.917","49.917","SEVEN PERSONS AGDM","3035845","AB","21.0","10","NA","37.9","10","7.4","10","","","NA","9.1","10","NA","","2","","","NA","1.5","64.5"
"-110.215","50.732","SOCIAL PLAINS AGCM","3036040","AB","20.4","8","NA","38.4","8","8.1","8","","","NA","19.1","8","NA","","4","","","NA","3.9","60.2"
"-112.982","51.228","STANDARD AGCM","3036086","AB","19.1","8","NA","35.8","8","6.5","8","","","NA","44.5","11","NA","","7","","","NA","14.5","40.1"
"-113.883","50.183","STAVELY AAFC","3036099","AB","17.5","0","NA","33.8","0","5.2","0","","","NA","69.3","0","NA","","7","","","NA","52.9","36.4"
"-113.283","51.033","STRATHMORE AGDM","3036205","AB","19.0","14","NA","34.3","14","7.7","14","","","NA","27.4","17","NA","","4","","","NA","12.8","30.2"
"-112.124","49.792","TABER","3036360","AB","20.4","14","NA","37.5","9","8.5","10","0.0","9","NA","16.2","9","NA","0.0","4","","","NA","2.9","43.6"
"-111.321","50.456","TIDE LAKE AGCM","3036485","AB","20.8","10","NA","38.3","10","5.9","10","","","NA","35.7","10","NA","","3","","","NA","4.2","62.9"
"-112.863","50.304","TRAVERS AGCM","3036500","AB","19.9","14","NA","35.3","14","8.0","14","","","NA","9.5","14","NA","","3","","","NA","6.5","39.3"
"-112.133","50.050","VAUXHALL CDA CS","3036682","AB","20.0","0","NA","37.2","0","6.9","0","","","NA","","","NA","","","","","NA","12.6","73.8"
"-112.117","49.500","WRENTHAM AGDM","3037675","AB","19.3","8","NA","37.7","8","4.8","8","","","NA","0.0","8","NA","","0","","","NA","13.2","43.0"
"-113.961","50.729","OKOTOKS","303M9JM","AB","19.4","8","2.4","35.5","8","6.0","8","0.0","8","NA","48.0","8","NA","0.0","6","","","NA","13.3","44.8"
"-112.817","49.050","DEL BONITA AGDM","3042045","AB","18.0","8","NA","36.0","8","3.9","8","","","NA","8.3","8","NA","","4","","","NA","27.8","28.3"
"-110.678","49.364","MANYBERRIES AGCM","3044203","AB","19.8","8","NA","39.0","8","4.6","8","","","NA","12.4","8","NA","","3","","","NA","11.7","53.4"
"-111.652","49.137","MASINASIN AGDM","3044232","AB","20.2","8","NA","39.2","8","5.2","8","","","NA","13.5","8","NA","","3","","","NA","7.2","58.6"
"-112.050","49.133","MILK RIVER","3044533","AB","19.1","4","NA","38.6","4","5.2","4","","","NA","2.8","28","NA","","1","","","NA","18.8","49.0"
"-110.467","49.117","ONEFOUR CDA","3044923","AB","22.1","20","NA","38.6","20","9.9","20","","","NA","4.8","21","NA","","1","","","NA","0.0","45.5"
"-111.126","49.225","PAKOWKI LAKE AGCM","3045000","AB","20.3","8","NA","39.1","8","7.2","8","","","NA","11.3","8","NA","","4","","","NA","5.9","58.2"
"-111.025","49.029","PINHORN AGCM","3045100","AB","20.3","9","NA","37.1","9","7.6","9","","","NA","21.0","9","NA","","4","","","NA","5.2","55.6"
"-112.160","49.283","WARNER AGCM","3046951","AB","19.9","9","NA","37.9","9","5.6","9","","","NA","7.4","24","NA","","1","","","NA","8.1","50.6"
"-115.552","51.193","BANFF CS","3050519","AB","15.5","0","NA","30.6","0","0.7","0","","","NA","55.1","0","NA","","7","","","NA","78.7","2.5"
"-114.175","49.468","BEAVER MINES","3050602","AB","17.2","0","NA","33.6","0","2.8","0","","","NA","22.7","0","NA","","3","","","NA","52.6","26.4"
"-115.067","51.083","BOW VALLEY","3050778","AB","16.1","0","NA","32.4","0","0.7","0","","","NA","53.7","0","NA","","7","","","NA","70.7","10.8"
"-114.482","49.628","CROWSNEST","3051R4R","AB","15.1","0","NA","31.6","0","2.0","0","","","NA","35.2","0","NA","","8","","","NA","93.6","3.8"
"-118.030","52.926","JASPER WARDEN","3053536","AB","15.4","1","NA","32.7","1","-1.1","1","","","NA","39.6","1","NA","","7","","","NA","83.3","3.8"
"-115.035","51.028","KANANASKIS","3053600","AB","15.7","0","1.2","31.5","0","1.5","0","0.0","0","NA","66.7","0","103.0","0.0","9","","","NA","75.8","4.8"
"-116.040","52.492","NORDEGG CS","3054843","AB","14.4","1","NA","28.5","1","1.7","1","","","NA","83.6","1","NA","","10","","","NA","113.0","4.5"
"-114.416","50.368","PEKISKO","3055119","AB","15.3","12","NA","31.3","12","0.5","12","","","NA","26.4","13","NA","","4","","","NA","53.7","2.9"
"-113.809","49.131","WATERTON PARK GATE","3056214","AB","16.8","0","NA","34.3","0","1.2","0","","","NA","31.0","0","NA","","8","","","NA","58.3","21.4"
"-115.787","54.144","WHITECOURT A","3057376","AB","16.4","0","NA","30.9","0","5.0","0","","","NA","","","NA","","","","","NA","60.7","12.1"
"-115.190","50.943","NAKISKA RIDGETOP","305MGFF","AB","10.4","0","NA","21.2","0","0.5","0","","","NA","","","NA","","","","","NA","235.2","0.0"
"-113.382","54.635","ATHABASCA AGCM","3060330","AB","17.7","8","NA","32.3","8","7.8","8","","","NA","86.1","8","NA","","9","","","NA","26.7","19.5"
"-112.825","54.782","ATMORE AGDM","3060406","AB","17.0","8","NA","29.2","8","5.9","8","","","NA","138.9","8","NA","","9","","","NA","35.6","12.1"
"-114.448","54.095","BARRHEAD CS","3060535","AB","16.8","0","NA","29.0","0","5.3","0","","","NA","154.4","0","NA","","12","","","NA","48.8","12.0"
"-117.867","53.350","BRULE BLACK CAT","3060903","AB","13.9","12","-0.3","29.0","8","0.5","10","0.0","3","NA","67.6","3","NA","0.0","12","","","NA","78.1","0.0"
"-114.678","54.131","CAMPSIE AUTO","3061201","AB","16.5","1","NA","29.8","1","4.2","1","","","NA","157.5","1","NA","","13","","","NA","52.5","8.8"
"-115.894","53.623","CARROT CREEK","3061350","AB","16.2","9","NA","30.4","9","4.0","9","","","NA","97.8","9","NA","","8","","","NA","42.3","3.3"
"-116.465","53.579","EDSON","3062239","AB","15.7","0","NA","29.8","0","2.2","0","","","NA","77.9","0","NA","","11","","","NA","74.9","5.1"
"-116.453","53.580","EDSON CLIMATE","3062246","AB","15.8","0","NA","30.0","0","2.3","0","","","NA","74.5","0","NA","","12","","","NA","73.7","5.8"
"-114.983","53.600","ENTWISTLE","3062451","AB","17.6","0","1.1","31.0","0","5.0","0","0.0","0","NA","154.0","0","149.0","0.0","12","","","NA","37.5","24.0"
"-115.062","53.614","EVANSBURG2 AGCM","3062476","AB","16.4","8","NA","29.8","8","3.9","8","","","NA","128.0","8","NA","","7","","","NA","40.2","3.8"
"-114.769","54.410","FORT ASSINIBOINE AGCM","3062660","AB","17.2","8","NA","29.3","8","7.0","8","","","NA","95.6","8","NA","","10","","","NA","27.0","8.2"
"-111.213","56.651","FORT MCMURRAY CS","3062696","AB","17.2","0","NA","29.4","0","5.0","0","","","NA","64.6","0","NA","","5","","","NA","42.5","18.4"
"-111.223","56.653","FORT MCMURRAY A","3062697","AB","17.3","0","NA","29.5","0","5.6","0","","","NA","81.0","0","NA","","9","","","NA","40.5","20.0"
"-118.447","53.795","HENDRICKSON CREEK","3063135","AB","11.7","0","NA","26.0","0","-1.8","0","","","NA","85.2","0","NA","1.0","13","","","NA","194.9","0.0"
"-116.479","55.396","HIGH PRAIRIE AGDM","3063165","AB","17.3","8","NA","32.3","8","3.9","8","","","NA","126.8","8","NA","","6","","","NA","28.9","13.4"
"-113.543","54.821","ISLAND LAKE SOUTH","3063600","AB","16.9","0","NA","29.8","0","6.1","0","","","NA","139.8","0","NA","","11","","","NA","52.2","16.8"
"-112.981","54.563","KINIKINIK","3063640","AB","17.6","8","NA","29.8","8","8.5","8","","","NA","129.2","8","NA","","10","","","NA","27.2","17.7"
"-112.024","54.769","LAC LA BICHE CLIMATE","3063686","AB","17.3","0","NA","28.6","0","5.9","0","","","NA","120.3","0","NA","","12","","","NA","40.8","18.4"
"-113.321","54.964","PLEASANT VIEW","3065200","AB","17.5","8","NA","29.7","8","8.3","8","","","NA","137.6","8","NA","","8","","","NA","28.5","17.6"
"-111.700","54.500","RICH LAKE AGDM","3065475","AB","17.1","8","NA","32.3","8","5.7","8","","","NA","66.2","8","NA","","9","","","NA","34.5","13.6"
"-111.835","53.851","ISPAS","3065712","AB","17.4","8","NA","28.6","8","7.2","8","","","NA","61.2","8","NA","","8","","","NA","28.9","15.8"
"-114.777","55.293","SLAVE LAKE","3065995","AB","17.1","0","NA","28.7","0","6.2","0","","","NA","102.4","0","NA","","10","","","NA","44.5","17.7"
"-114.777","55.293","SLAVE LAKE RCS","3065997","AB","16.9","0","NA","29.0","0","5.8","0","","","NA","89.2","0","NA","","8","","","NA","50.1","14.9"
"-113.520","54.300","TAWATINAW AGCM","3066367","AB","17.1","8","NA","28.0","8","8.2","8","","","NA","70.3","8","NA","","7","","","NA","33.1","12.9"
"-118.348","53.386","WILLOW CREEK 1","306GE70","AB","12.6","3","NA","27.9","2","-2.4","3","","","NA","43.9","5","NA","","10","","","NA","151.6","0.0"
"-113.941","54.683","DUCK LAKE AGCM","306X001","AB","16.4","8","NA","29.7","8","5.0","8","","","NA","95.7","8","NA","","7","","","NA","46.0","9.1"
"-117.236","55.577","BALLATER AGCM","3070495","AB","17.3","8","NA","31.7","8","5.7","8","","","NA","119.0","8","NA","","8","","","NA","29.6","13.9"
"-119.396","55.197","BEAVERLODGE RCS","3070600","AB","16.7","2","NA","31.6","2","6.5","2","","","NA","50.7","2","NA","","9","","","NA","49.9","10.8"
"-117.886","56.118","BROWNVALE AGCM","3070800","AB","17.9","8","NA","30.0","8","6.8","8","","","NA","61.8","8","NA","","8","","","NA","17.9","16.2"
"-117.933","56.529","CLEAR HILLS AGCM","3071661","AB","18.1","8","NA","32.1","8","7.8","8","","","NA","84.8","8","NA","","7","","","NA","13.5","16.2"
"-117.543","56.715","DEADWOOD AGCM","3071957","AB","19.0","8","NA","31.6","8","8.6","8","","","NA","37.0","8","NA","","6","","","NA","8.3","30.7"
"-117.887","55.808","EAGLESHAM AGCM","3072151","AB","17.3","8","NA","31.1","8","7.0","8","","","NA","60.3","8","NA","","6","","","NA","26.3","11.1"
"-110.439","58.981","EGG ISLAND","3072246","AB","18.9","22","NA","27.5","21","14.3","22","","","NA","","","NA","","","","","NA","2.9","10.6"
"-118.439","56.081","FAIRVIEW AGDM","3072525","AB","17.8","8","NA","30.9","8","6.9","8","","","NA","90.4","8","NA","","9","","","NA","22.9","18.4"
"-111.117","58.767","FORT CHIPEWYAN","3072655","AB","17.9","0","NA","29.2","0","3.3","0","","","NA","49.8","0","NA","","3","","","NA","26.7","23.2"
"-111.117","58.767","FORT CHIPEWYAN RCS","3072659","AB","18.0","0","NA","29.6","0","3.5","0","","","NA","49.4","0","NA","","3","","","NA","24.7","26.0"
"-116.040","58.382","FORT VERMILION","3072723","AB","18.7","0","NA","30.5","0","7.8","0","","","NA","74.3","0","NA","","9","","","NA","14.5","37.4"
"-118.885","55.180","GRANDE PRAIRIE A","3072921","AB","17.1","0","NA","32.2","0","5.5","0","0.0","1","NA","51.7","1","NA","","9","","","NA","43.6","17.2"
"-117.298","57.265","HAWK HILLS AGCM","3073071","AB","18.5","8","NA","30.3","8","8.3","8","","","NA","100.0","8","NA","","7","","","NA","11.2","22.2"
"-117.165","58.622","HIGH LEVEL A","3073140","AB","17.9","0","NA","30.2","0","2.7","0","","","NA","59.3","0","NA","","4","","","NA","26.9","22.5"
"-117.164","58.631","HIGH LEVEL","3073148","AB","16.6","0","NA","30.5","0","0.1","0","","","NA","63.1","0","NA","0.0","5","","","NA","52.3","7.6"
"-117.120","55.913","JEAN COTE AGCM","3073535","AB","17.9","8","NA","29.0","8","8.6","8","","","NA","92.5","8","NA","","7","","","NA","22.8","20.4"
"-117.677","57.788","KEG RIVER AGCM","3073644","AB","17.9","8","NA","31.6","8","5.9","8","","","NA","53.4","8","NA","","5","","","NA","17.1","15.7"
"-116.343","58.172","LA CRETE AGCM","3073730","AB","18.9","8","NA","30.3","8","9.8","8","","","NA","69.6","8","NA","","6","","","NA","11.4","32.6"
"-119.255","55.422","LA GLACE AGCM","3073740","AB","16.6","8","NA","32.0","8","5.2","8","","","NA","26.2","18","NA","","5","","","NA","39.3","7.6"
"-117.451","56.974","MANNING AGDM","3074190","AB","18.3","8","NA","30.6","8","6.8","8","","","NA","","","NA","","","","","NA","12.1","18.8"
"-119.745","56.314","CLEARDALE AGDM","3074935","AB","18.1","8","NA","32.2","8","7.0","8","","","NA","28.6","8","NA","","7","","","NA","19.5","22.8"
"-117.448","56.227","PEACE RIVER A","3075041","AB","17.6","0","NA","30.4","0","5.8","0","0.0","0","NA","91.5","0","NA","","5","","","NA","34.6","21.4"
"-117.452","56.193","ROMA","3075043","AB","17.5","1","NA","29.7","1","6.4","1","","","NA","93.6","1","NA","","8","","","NA","36.3","20.7"
"-118.293","55.621","PEORIA AGDM","3075160","AB","16.6","8","NA","31.3","8","5.8","8","","","NA","79.2","9","NA","","8","","","NA","39.2","7.8"
"-115.278","56.552","RED EARTH","3075488","AB","17.3","0","NA","29.8","0","5.2","0","","","NA","53.1","11","NA","","6","","","NA","38.4","17.5"
"-116.481","58.452","ROCKY LANE AGCM","3075550","AB","18.5","8","NA","31.1","8","6.8","8","","","NA","73.7","8","NA","","5","","","NA","11.3","22.0"
"-118.668","55.777","RYCROFT AGCM","3075601","AB","17.3","8","NA","32.6","8","7.0","8","","","NA","94.2","8","NA","","7","","","NA","28.0","12.7"
"-119.345","56.076","SAVANNA AGCM","3075770","AB","17.5","8","NA","32.1","8","8.0","8","","","NA","75.0","8","NA","","6","","","NA","26.7","16.3"
"-111.997","58.853","SWEETGRASS LANDING","3076330","AB","","","NA","","","","","","","NA","19.8","2","NA","","3","","","NA","",""
"-118.408","55.352","TEEPEE CREEK AGCM","3076366","AB","17.2","8","NA","31.9","8","5.6","8","","","NA","32.7","8","NA","","6","","","NA","28.1","9.1"
"-116.848","58.021","TOMPKINS LANDING AGCM","3076530","AB","18.7","8","NA","30.7","8","8.2","8","","","NA","73.1","8","NA","","4","","","NA","11.8","28.9"
"-117.199","55.098","VALLEYVIEW AGDM","3076680","AB","17.2","8","NA","30.4","8","6.0","8","","","NA","171.1","8","NA","","10","","","NA","30.3","12.2"
"-110.283","54.417","COLD LAKE A","3081680","AB","16.9","0","-0.5","28.8","0","4.6","0","0.0","0","NA","64.5","0","82.0","","11","","","NA","52.7","19.4"
"-110.323","54.177","BEAVERDAM AGCM","308X001","AB","17.0","8","NA","27.5","8","4.5","8","","","NA","43.2","8","NA","","7","","","NA","36.4","13.0"
