"Long","Lat","Stn_Name","Clim_ID","Prov_or_Ter","Tm","DwTm","D","Tx","DwTx","Tn","DwTn","S","DwS","S%N","P","DwP","P%N","S_G","Pd","BS","DwBS","BS%","HDD","CDD"
"-112.967","54.283","ABEE AGDM","3010010","AB","10.2","2","NA","25.0","2","-4.5","2","","","NA","7.9","4","NA","","2","","","NA","219.2","0.0"
"-111.181","53.113","ALBERT HALL AGCM","3010060","AB","11.6","2","NA","26.5","2","-3.4","2","","","NA","13.2","16","NA","","1","","","NA","179.4","0.2"
"-111.779","52.315","ALLIANCE AGCM","3010162","AB","12.7","2","NA","27.9","2","0.3","2","","","NA","20.9","3","NA","","3","","","NA","148.0","0.8"
"-112.279","53.917","ANDREW AGDM","3010237","AB","11.2","2","NA","26.2","2","-3.7","2","","","NA","6.3","3","NA","","1","","","NA","191.4","0.0"
"-111.465","52.582","BELLSHILL AGCM","3010650","AB","13.3","2","NA","27.2","2","1.0","2","","","NA","13.6","10","NA","","2","","","NA","132.1","0.4"
"-110.101","52.124","BODO AGDM","3010730","AB","14.1","2","NA","30.0","2","-1.1","2","","","NA","22.0","2","NA","","6","","","NA","116.6","6.1"
"-114.483","53.167","BRETON","3010815","AB","","","NA","","","","","0.0","0","NA","56.0","0","NA","0.0","9","","","NA","",""
"-114.441","53.089","BRETON PLOTS","3010816","AB","11.4","2","NA","25.3","2","-2.7","2","","","NA","33.5","2","NA","","6","","","NA","185.5","0.0"
"-113.922","53.931","BUSBY AGCM","3010979","AB","11.0","2","NA","24.2","2","-2.4","2","","","NA","7.5","3","NA","","2","","","NA","194.9","0.0"
"-110.510","52.334","CADOGAN AGCM","3010992","AB","13.6","4","NA","29.0","4","0.4","4","","","NA","10.4","4","NA","","3","","","NA","117.9","2.5"
"-112.817","53.050","CAMROSE","3011240","AB","11.8","0","1.4","26.1","0","-2.2","0","","","NA","29.5","0","74.0","","3","","","NA","185.3","0.0"
"-110.713","51.937","CONSORT AGDM","3011815","AB","13.7","2","NA","28.8","2","1.3","2","","","NA","33.3","2","NA","","3","","","NA","122.2","1.9"
"-111.449","52.074","CORONATION CLIMATE","3011887","AB","12.7","2","NA","29.3","2","-1.5","2","","","NA","16.7","2","NA","","5","","","NA","149.6","0.9"
"-113.903","52.733","CRESTOMERE AGCM","3011892","AB","11.2","2","NA","26.3","2","-3.2","2","","","NA","29.1","5","NA","","5","","","NA","191.3","0.0"
"-113.950","52.750","DAKOTA WEST","3011953","AB","12.2","0","2.1","25.5","0","-1.5","0","0.0","0","0.0","36.0","0","75.0","0.0","6","","","NA","173.4","0.3"
"-113.176","52.183","DELBURNE AGCM","3012050","AB","12.4","2","NA","29.5","2","-0.5","2","","","NA","30.7","2","NA","","5","","","NA","158.1","1.5"
"-110.588","53.659","DEWBERRY AGCM","3012073","AB","12.1","2","NA","24.9","2","-2.8","2","","","NA","12.5","3","NA","","3","","","NA","167.1","0.7"
"-110.433","52.778","EDGERTON AGCM","3012192","AB","13.1","2","NA","28.5","2","-2.6","2","","","NA","17.9","3","NA","","5","","","NA","138.1","1.3"
"-113.606","53.307","EDMONTON INTERNATIONAL CS","3012206","AB","11.5","0","NA","26.0","0","-3.7","0","","","NA","16.1","0","NA","","6","","","NA","197.0","0.5"
"-113.517","53.573","EDMONTON BLATCHFORD","3012209","AB","14.1","0","NA","26.3","0","0.7","0","","","NA","14.4","0","NA","","3","","","NA","121.5","4.5"
"-113.579","53.310","EDMONTON INTL A","3012216","AB","11.5","0","NA","26.2","0","-3.9","0","0.0","0","NA","18.1","0","NA","","7","","","NA","195.6","0.6"
"-113.538","53.490","EDMONTON SOUTH CAMPUS","3012220","AB","12.8","10","NA","25.6","10","-0.3","10","","","NA","7.1","11","NA","","2","","","NA","105.0","0.0"
"-113.856","53.668","EDMONTON VILLENEUVE A","3012229","AB","11.5","1","NA","24.8","1","-2.5","1","","","NA","21.6","1","NA","","4","","","NA","188.3","0.0"
"-114.108","53.548","EDMONTON STONY PLAIN","301222F","AB","13.5","0","2.5","25.0","0","-0.5","0","0.0","0","0.0","33.8","0","76.0","0.0","5","","","NA","136.1","1.6"
"-112.868","53.683","ELK ISLAND NAT PARK","3012275","AB","12.1","1","2.1","24.0","1","-2.2","1","","","NA","11.8","1","NA","","3","","","NA","170.5","0.0"
"-111.000","52.967","FABYAN","3012515","AB","12.6","0","2.2","27.5","0","-1.0","0","0.0","0","0.0","18.4","0","49.0","0.0","5","","","NA","162.0","0.5"
"-112.858","52.744","FERINTOSH AGCM","3012590","AB","11.4","2","NA","26.3","2","-2.9","2","","","NA","24.4","3","NA","","4","","","NA","184.2","0.0"
"-111.813","52.041","FLEET AGCM","3012635","AB","12.4","4","NA","28.7","4","0.7","4","","","NA","21.3","4","NA","","6","","","NA","145.5","0.5"
"-112.123","52.548","FORESTBURG AGCM","3012653","AB","12.6","2","NA","27.3","2","-1.0","2","","","NA","14.1","2","NA","","3","","","NA","151.1","0.3"
"-110.621","53.071","GILT EDGE NORTH AGCM","3012790","AB","13.1","3","NA","27.1","3","-2.0","3","","","NA","20.1","3","NA","","5","","","NA","132.0","1.0"
"-114.320","53.295","ST. FRANCIS","3012799","AB","12.5","4","NA","24.9","4","0.0","4","","","NA","28.3","5","NA","","5","","","NA","143.6","0.6"
"-112.278","52.987","GLADSTONE AGCM","3012810","AB","11.6","2","NA","26.2","2","-1.1","2","","","NA","32.7","3","NA","","4","","","NA","180.3","0.0"
"-114.539","53.833","GLENEVIS AGCM","3012818","AB","11.9","2","NA","24.3","2","-0.2","2","","","NA","","","NA","","","","","NA","169.7","0.1"
"-110.803","52.113","GOOSEBERRY LAKE AGCM","3012871","AB","12.4","4","NA","29.1","4","-3.0","4","","","NA","13.2","5","NA","","3","","","NA","146.1","0.9"
"-112.164","52.116","HALKIRK AGCM","3012999","AB","12.0","4","NA","28.1","4","0.0","4","","","NA","42.5","10","NA","","5","","","NA","157.5","0.5"
"-111.212","51.780","HEMARUKA AGCM","3013140","AB","13.0","4","NA","29.8","4","-1.4","4","","","NA","13.7","7","NA","","3","","","NA","131.2","0.1"
"-112.246","53.185","HOLDEN AGDM","3013340","AB","11.4","4","NA","24.5","4","-0.5","4","","","NA","36.0","10","NA","","6","","","NA","172.3","0.0"
"-110.784","52.578","HUGHENDEN AGCM","3013362","AB","13.5","3","NA","28.7","3","-1.0","3","","","NA","20.2","5","NA","","4","","","NA","124.8","2.1"
"-111.872","52.848","KILLAM AGDM","3013640","AB","11.6","2","NA","26.8","2","-1.9","2","","","NA","","","NA","","","","","NA","180.3","0.0"
"-111.113","52.290","KESSLER AGCM","3013644","AB","12.6","4","NA","28.6","4","-2.5","4","","","NA","20.7","14","NA","","4","","","NA","141.0","1.3"
"-111.548","53.047","KINSELLA RESEARC STATION","3013647","AB","11.5","2","NA","25.6","2","-2.1","2","","","NA","15.4","3","NA","","5","","","NA","180.8","0.0"
"-110.416","53.353","KITSCOTY AGCM","3013660","AB","12.8","2","NA","25.9","2","-1.6","2","","","NA","23.7","3","NA","","5","","","NA","146.6","0.0"
"-113.474","54.003","LEGAL AGCM","3013790","AB","11.6","2","NA","24.9","2","-2.2","2","","","NA","6.8","3","NA","","1","","","NA","178.3","0.0"
"-110.579","53.943","LINDBERGH AGDM","3013921","AB","10.7","2","NA","23.4","2","-3.2","2","","","NA","11.0","3","NA","","4","","","NA","205.6","0.0"
"-110.073","53.309","LLOYDMINSTER","3013959","AB","12.8","0","NA","26.5","0","-1.1","0","","","NA","12.7","0","NA","","4","","","NA","154.9","0.2"
"-110.073","53.309","LLOYDMINSTER A","3013961","AB","13.3","0","3.0","26.5","0","-1.0","0","0.0","0","0.0","13.4","0","32.0","0.0","3","","","NA","144.8","2.8"
"-111.255","53.456","MANNVILLE AGCM","3014195","AB","12.6","2","NA","25.6","2","-0.9","2","","","NA","14.8","3","NA","","4","","","NA","150.9","0.3"
"-110.550","52.017","MONITOR","3014600","AB","","","NA","","","","","0.0","0","0.0","19.4","0","57.0","0.0","6","","","NA","",""
"-113.165","53.262","NEW SAREPTA AGCM","3014795","AB","11.1","10","NA","24.1","10","-3.1","10","","","NA","20.5","11","NA","","3","","","NA","138.0","0.0"
"-113.350","53.650","OLIVER AGDM","3014921","AB","11.0","4","NA","24.4","4","-3.2","4","","","NA","9.1","17","NA","","3","","","NA","181.4","0.0"
"-112.879","53.995","RADWAY AGCM","3015346","AB","11.8","18","NA","25.8","18","-2.6","18","","","NA","","","NA","","","","","NA","74.3","0.0"
"-111.726","53.425","RANFURLY AUTO","3015401","AB","12.5","0","NA","25.8","0","-0.7","0","","","NA","19.0","0","NA","1.0","5","","","NA","165.1","0.0"
"-110.343","52.587","RIBSTONE SOUTH AGCM","3015480","AB","13.1","2","NA","29.3","2","-3.0","2","","","NA","19.9","3","NA","","5","","","NA","140.5","1.9"
"-110.102","53.019","RIVERCOURSE AGCM","3015501","AB","13.1","2","NA","27.3","2","-1.4","2","","","NA","15.2","4","NA","","4","","","NA","136.8","0.9"
"-114.912","52.421","ROCKY MTN HOUSE (AUT)","3015523","AB","10.4","0","NA","26.2","0","-3.4","0","","","NA","20.2","0","NA","","5","","","NA","229.3","0.0"
"-112.422","52.792","ROSALIND AGCM","3015600","AB","12.4","2","NA","27.4","2","-1.0","2","","","NA","16.2","7","NA","","4","","","NA","156.8","0.3"
"-111.453","54.282","ST. LINA AGCM","3015673","AB","11.6","2","NA","24.1","2","-2.1","2","","","NA","5.2","22","NA","","2","","","NA","179.3","0.0"
"-111.272","54.011","ST. PAUL AGCM","3015676","AB","11.6","2","NA","24.6","2","-1.5","2","","","NA","11.8","3","NA","","3","","","NA","178.8","0.0"
"-110.755","51.590","SEDALIA AGCM","3015797","AB","13.8","4","NA","30.3","4","0.3","4","","","NA","35.8","5","NA","","6","","","NA","110.4","2.4"
"-112.539","53.333","SHONTS AGCM","3015900","AB","10.9","4","NA","25.5","4","-1.3","4","","","NA","27.8","5","NA","","2","","","NA","183.4","0.0"
"-112.499","54.278","SMOKY LAKE AGDM","3016022","AB","11.6","2","NA","24.8","2","-0.3","2","","","NA","7.2","3","NA","","2","","","NA","179.0","0.0"
"-111.683","51.816","SPONDIN AGCM","3016070","AB","12.4","4","NA","29.2","4","-1.1","4","","","NA","8.6","6","NA","","4","","","NA","147.2","1.7"
"-112.596","52.347","STETTLER AGDM","3016124","AB","13.1","2","NA","29.2","2","0.4","2","","","NA","28.2","2","NA","","6","","","NA","138.9","1.3"
"-113.895","53.217","THORSBY AGCM","3016441","AB","11.7","2","NA","25.2","2","-2.6","2","","","NA","24.4","3","NA","","5","","","NA","177.7","0.0"
"-114.718","53.439","TOMAHAWK AGDM","3016505","AB","11.4","2","NA","24.9","2","-3.5","2","","","NA","14.5","2","NA","","4","","","NA","184.5","0.0"
"-110.081","53.664","TULLIBY LAKE AGCM","3016593","AB","11.9","3","NA","25.5","2","-3.5","3","","","NA","22.0","5","NA","","4","","","NA","164.4","0.6"
"-113.033","53.500","UNCAS","3016650","AB","","","NA","","","","","0.0","0","NA","24.0","0","NA","0.0","5","","","NA","",""
"-111.678","53.625","TWO HILLS AGDM","3016655","AB","12.9","2","NA","26.0","2","0.9","2","","","NA","8.8","4","NA","","3","","","NA","142.2","0.0"
"-110.882","53.344","VERMILION AGDM","3016802","AB","12.1","2","NA","25.4","2","-3.3","2","","","NA","17.6","3","NA","","3","","","NA","165.3","0.4"
"-111.732","53.182","VIKING AGCM","3016841","AB","12.7","2","NA","26.4","2","0.5","2","","","NA","16.6","3","NA","","4","","","NA","149.8","0.0"
"-111.921","54.130","VILNA AGCM","3016852","AB","11.6","10","NA","25.2","10","-3.3","10","","","NA","0.8","18","NA","","0","","","NA","127.2","0.0"
"-112.098","53.505","VEGREVILLE","3016GF0","AB","11.7","0","1.5","26.7","0","-1.7","0","","","NA","7.5","0","19.0","","3","","","NA","190.0","0.3"
"-113.444","52.980","WETASKIWIN AGCM","3017282","AB","11.4","2","NA","25.9","2","-2.2","2","","","NA","37.9","23","NA","","4","","","NA","183.7","0.0"
"-111.224","51.491","YOUNGSTOWN AGCM","3017705","AB","13.9","2","NA","30.1","2","0.0","2","","","NA","22.6","3","NA","","6","","","NA","122.0","6.2"
"-114.108","53.547","EDMONTON STONY PLAIN CS","301A001","AB","12.9","0","NA","24.5","0","-0.3","0","","","NA","32.7","0","NA","","4","","","NA","154.7","0.3"
"-110.206","51.670","ESTHER 1","301B460","AB","14.6","3","NA","30.9","3","-1.4","3","","","NA","11.5","3","NA","","3","","","NA","101.0","8.3"
"-111.096","52.829","WAINWRIGHT CFB AIRFIELD 21","301S001","AB","13.4","0","NA","27.4","0","0.4","0","","","NA","12.3","0","NA","","2","","","NA","139.6","0.9"
"-113.821","54.308","PIBROCH AGCM","301X001","AB","10.4","2","NA","25.4","2","-3.1","2","","","NA","5.2","2","NA","","2","","","NA","213.1","0.0"
"-113.099","53.843","REDWATER INDUSTRIAL AGCM","301X002","AB","12.8","4","NA","24.6","4","-1.8","4","","","NA","6.1","6","NA","","2","","","NA","134.0","0.0"
"-110.025","53.358","LLOYDMINSTER LITE","301X003","AB","12.5","2","NA","27.1","2","-1.4","2","","","NA","12.3","4","NA","0.0","3","","","NA","153.1","0.2"
"-110.317","51.066","ACADIA VALLEY","3020035","AB","15.0","4","NA","30.9","4","3.4","4","","","NA","8.0","5","NA","","2","","","NA","87.6","10.1"
"-111.006","50.810","ATLEE AGCM","3020405","AB","14.7","4","NA","31.3","4","1.7","4","","","NA","6.2","4","NA","","2","","","NA","93.9","8.8"
"-113.357","51.379","BEISEKER AGCM","3020610","AB","11.6","4","NA","30.1","4","-3.8","4","","","NA","10.8","7","NA","","5","","","NA","167.4","0.9"
"-112.803","51.998","BIG VALLEY AGCM","3020679","AB","13.4","2","NA","29.2","2","2.1","2","","","NA","27.9","3","NA","","5","","","NA","130.6","2.8"
"-110.686","50.798","BUFFALO AGCM","3020950","AB","15.1","4","NA","31.0","4","1.5","4","","","NA","9.8","5","NA","","3","","","NA","89.3","14.4"
"-111.221","51.024","CABIN LAKE AGCM","3021000","AB","14.1","2","NA","31.2","2","-0.8","2","","","NA","","","NA","","","","","NA","114.1","6.1"
"-110.797","51.067","CAPPON","3021200","AB","14.0","2","NA","30.6","2","-2.3","2","","","NA","6.2","4","NA","","2","","","NA","120.0","7.3"
"-110.824","51.276","CEREAL AGCM","3021463","AB","13.9","4","NA","30.9","4","-0.1","4","","","NA","8.3","4","NA","","2","","","NA","112.7","6.8"
"-112.252","51.775","CRAIGMYLE AGCM","3021912","AB","12.5","4","NA","29.4","4","-0.2","4","","","NA","24.0","5","NA","","6","","","NA","143.4","1.0"
"-112.677","51.445","DRUMHELLER EAST","30221LG","AB","14.9","0","NA","32.2","0","1.2","0","","","NA","11.3","0","NA","","6","","","NA","99.5","7.2"
"-112.097","51.053","FINNEGAN AGCM","3022650","AB","13.5","4","NA","30.8","4","-1.0","4","","","NA","12.6","22","NA","","3","","","NA","121.9","4.0"
"-112.135","51.453","HAND HILLS AGCM","3022990","AB","12.8","6","NA","28.7","6","1.0","6","","","NA","13.7","6","NA","","5","","","NA","126.6","1.2"
"-114.486","52.310","HESPERO AGCM","3023200","AB","10.6","2","NA","27.0","2","-2.4","2","","","NA","6.3","2","NA","","2","","","NA","206.0","0.0"
"-112.500","51.183","HUSSAR AGDM","3023402","AB","13.4","2","NA","28.8","2","1.2","2","","","NA","35.0","3","NA","","5","","","NA","132.5","2.9"
"-110.359","51.913","KIRRIEMUIR AGCM","3023660","AB","13.6","4","NA","29.7","4","-0.2","4","","","NA","15.0","4","NA","","4","","","NA","117.6","2.3"
"-113.756","52.449","LACOMBE CDA 2","3023722","AB","11.6","0","NA","27.5","0","-2.5","0","","","NA","26.3","0","NA","","3","","","NA","191.2","0.3"
"-114.473","52.553","LEEDALE AGDM","3023740","AB","10.1","2","NA","26.6","2","-5.1","2","","","NA","14.7","7","NA","","5","","","NA","222.5","0.0"
"-113.656","51.619","LINDEN AGCM","3023850","AB","11.0","4","NA","29.7","4","-1.9","4","","","NA","11.9","4","NA","","3","","","NA","181.1","0.0"
"-110.341","49.458","LODGE CREEK","3023900","AB","13.0","4","NA","29.9","4","-2.0","4","","","NA","31.9","4","NA","","7","","","NA","129.6","0.6"
"-112.675","51.660","MORRIN AGDM","3024668","AB","12.7","3","NA","29.7","2","0.1","3","","","NA","24.8","4","NA","","7","","","NA","142.4","0.3"
"-114.085","51.759","OLDS AGDM","3024925","AB","11.8","2","NA","28.7","2","-1.7","2","","","NA","14.7","2","NA","","4","","","NA","175.2","0.3"
"-110.350","51.383","OYEN AGDM","3024965","AB","14.6","3","NA","30.3","3","0.8","3","","","NA","55.3","5","NA","","5","","","NA","101.0","9.0"
"-111.621","50.740","PATRICIA AGCM","3025013","AB","14.0","4","NA","31.1","4","-0.3","4","","","NA","12.7","4","NA","","3","","","NA","108.1","4.4"
"-111.705","51.125","POLLOCKVILLE AGDM","3025243","AB","13.4","2","NA","30.7","2","-1.0","2","","","NA","16.2","2","NA","","3","","","NA","131.7","1.6"
"-113.600","52.433","PRENTISS","3025297","AB","13.0","3","NA","27.5","3","0.2","3","","","NA","5.6","4","NA","","2","","","NA","135.0","0.0"
"-113.894","52.182","RED DEER REGIONAL A","3025484","AB","11.6","0","NA","27.6","0","-1.6","0","","","NA","21.8","0","NA","","5","","","NA","193.3","0.0"
"-113.620","53.692","ST. ALBERT RESEARCH STATION","3025750","AB","11.9","0","NA","25.9","0","-3.2","0","","","NA","17.4","0","NA","","4","","","NA","185.2","1.0"
"-110.091","50.307","SCHULER AGDM","3025768","AB","15.0","2","NA","31.5","2","0.0","2","","","NA","12.8","4","NA","","1","","","NA","97.1","13.7"
"-111.646","51.463","SHEERNESS AGCM","3025890","AB","13.9","4","NA","30.1","4","1.7","4","","","NA","18.2","7","NA","","5","","","NA","111.1","4.9"
"-111.388","51.301","SUNNYNOOK AGCM","3026264","AB","12.6","4","NA","30.6","4","-1.4","4","","","NA","27.5","8","NA","","5","","","NA","140.8","1.6"
"-113.206","51.768","THREE HILLS","3026479","AB","11.8","2","NA","29.7","2","-1.9","2","","","NA","16.7","3","NA","","4","","","NA","175.8","1.0"
"-111.955","50.895","VERGER","3026800","AB","13.2","4","NA","30.9","4","-1.6","4","","","NA","11.0","10","NA","","3","","","NA","127.5","1.5"
"-114.683","51.778","SUNDRE A","3026KNQ","AB","10.3","0","NA","28.6","0","-4.0","0","","","NA","19.9","0","NA","","5","","","NA","230.3","0.0"
"-113.591","51.936","WIMBORNE AGCM","3027582","AB","11.5","4","NA","28.5","4","-0.8","4","","","NA","26.9","4","NA","","3","","","NA","170.3","0.6"
"-113.434","49.528","ARDENVILLE","3030200","AB","13.5","4","NA","28.9","4","1.7","4","","","NA","38.0","5","NA","","4","","","NA","126.5","8.5"
"-114.013","50.512","AZURE","3030450","AB","12.4","5","NA","30.3","5","-1.7","5","","","NA","32.5","7","NA","","6","","","NA","143.4","4.3"
"-112.300","49.800","BARNWELL AGDM","3030525","AB","15.1","2","NA","31.5","2","-0.3","2","","","NA","47.9","2","NA","","2","","","NA","97.5","15.2"
"-113.224","50.026","BARONS AGCM","3030529","AB","13.2","4","NA","30.9","4","-2.0","4","","","NA","19.8","6","NA","","1","","","NA","128.3","4.2"
"-112.465","50.893","BASSANO AGCM","3030540","AB","13.1","4","NA","30.9","4","0.5","4","","","NA","16.6","4","NA","","5","","","NA","132.7","4.0"
"-114.152","50.707","BLACK DIAMOND","3030680","AB","11.6","4","NA","29.5","4","-3.8","4","","","NA","32.0","5","NA","","5","","","NA","166.3","0.0"
"-113.640","50.546","BLACKIE AGCM","3030690","AB","11.7","4","NA","29.8","4","-3.6","4","","","NA","28.9","5","NA","","3","","","NA","163.7","0.2"
"-113.050","49.567","BLOOD TRIBE AGDM","3030720","AB","13.5","2","NA","30.4","2","-1.0","2","","","NA","26.2","8","NA","","4","","","NA","131.3","4.7"
"-111.450","49.734","BOW ISLAND","3030768","AB","15.3","0","NA","31.1","0","0.6","0","","","NA","8.8","0","NA","","3","","","NA","95.7","15.1"
"-113.817","49.617","BROCKET AGDM","3030830","AB","13.3","2","NA","28.3","2","1.2","2","","","NA","31.9","2","NA","","5","","","NA","135.8","4.0"
"-110.484","50.339","BULL SPRINGS AGCM","3030879","AB","15.4","4","NA","31.4","4","0.5","4","","","NA","42.1","5","NA","","2","","","NA","83.6","16.5"
"-111.849","50.555","BROOKS","3030QLP","AB","14.3","0","NA","31.5","0","-0.3","0","","","NA","9.7","0","NA","","3","","","NA","118.2","7.1"
"-114.013","51.123","CALGARY INTL A","3031092","AB","13.4","0","NA","28.7","0","-0.6","0","0.0","0","NA","18.8","0","NA","","5","","","NA","142.6","5.7"
"-114.000","51.109","CALGARY INT'L CS","3031094","AB","13.2","0","NA","28.5","0","-0.8","0","","","NA","16.4","0","NA","","5","","","NA","150.8","7.0"
"-114.371","51.105","CALGARY SPRINGBANK A","3031109","AB","11.1","0","NA","28.3","0","-3.4","0","","","NA","20.3","0","NA","","4","","","NA","208.3","0.6"
"-113.286","49.201","CARDSTON","3031322","AB","13.3","0","NA","28.1","0","-0.8","0","","","NA","32.4","0","NA","","5","","","NA","146.2","3.9"
"-113.376","49.001","CARWAY","3031402","AB","11.9","4","NA","27.0","4","0.3","4","","","NA","49.5","4","NA","","5","","","NA","160.2","0.4"
"-113.350","50.282","CHAMPION AGDM","3031480","AB","12.9","4","NA","30.4","4","-2.6","4","","","NA","23.9","5","NA","","4","","","NA","135.0","2.7"
"-113.639","50.004","CLARESHOLM","3031640","AB","13.5","0","NA","31.1","0","-1.7","0","","","NA","28.3","0","NA","","4","","","NA","141.8","7.2"
"-114.222","51.076","COP UPPER","3031875","AB","13.2","0","NA","28.4","0","1.3","0","","","NA","14.3","0","NA","","3","","","NA","148.6","4.9"
"-112.433","50.183","ENCHANT AGDM","3032422","AB","14.2","2","NA","29.6","2","1.2","2","","","NA","18.4","2","NA","","2","","","NA","114.9","7.7"
"-111.054","49.553","ETZIKOM AGCM","3032450","AB","15.1","2","NA","31.5","2","1.2","2","","","NA","8.5","3","NA","","2","","","NA","94.8","13.6"
"-112.033","49.800","FINCASTLE AGDM","3032550","AB","15.1","4","NA","31.6","4","1.6","4","","","NA","13.2","12","NA","","2","","","NA","84.3","10.0"
"-111.486","49.483","FOREMOST AGDM","3032642","AB","15.0","2","NA","31.0","2","1.1","2","","","NA","11.0","4","NA","","2","","","NA","97.6","13.0"
"-113.379","49.786","FORT MACLEOD AGCM","3032683","AB","13.4","4","NA","30.2","4","-1.2","4","","","NA","28.2","4","NA","","3","","","NA","126.1","5.7"
"-112.941","50.934","GLEICHEN AGCM","3032801","AB","13.2","4","NA","30.0","4","-0.3","4","","","NA","34.3","4","NA","","5","","","NA","128.4","2.5"
"-111.733","49.874","GRASSY LAKE","3032927","AB","15.5","2","NA","31.7","2","-0.2","2","","","NA","11.6","2","NA","","1","","","NA","85.7","16.3"
"-110.261","49.989","IRVINE AGCM","3033550","AB","15.6","4","NA","31.8","4","2.7","4","","","NA","19.4","4","NA","","3","","","NA","80.6","19.1"
"-113.631","51.191","KEOMA AGCM","3033620","AB","12.0","4","NA","30.3","4","-2.2","4","","","NA","17.1","8","NA","","5","","","NA","159.2","2.2"
"-112.299","50.600","LATHOM AGCM","3033770","AB","13.5","4","NA","30.7","4","0.4","4","","","NA","13.2","6","NA","","4","","","NA","123.5","5.2"
"-112.799","49.630","LETHBRIDGE","3033875","AB","14.1","0","NA","31.7","0","-1.5","0","","","NA","20.6","0","NA","","3","","","NA","127.1","11.1"
"-112.763","49.647","LETHBRIDGE AGTECH AGCM","3033877","AB","13.6","2","NA","29.7","2","-0.1","2","","","NA","30.8","7","NA","","4","","","NA","128.9","5.4"
"-112.768","49.695","LETHBRIDGE CDA","3033890","AB","15.0","0","NA","31.7","0","0.1","0","","","NA","","","NA","","","","","NA","104.5","14.5"
"-112.783","49.700","LETHBRIDGE CDA 2","3033892","AB","","","NA","","","","","0.0","0","NA","26.8","0","NA","0.0","3","","","NA","",""
"-112.750","49.683","LETHBRIDGE DEMO FARM AGDM","3033897","AB","14.7","2","NA","31.5","2","-0.1","2","","","NA","24.4","10","NA","","2","","","NA","106.1","12.9"
"-110.721","50.019","MEDICINE HAT","3034479","AB","16.3","0","NA","31.9","0","2.2","0","","","NA","0.0","9","NA","","0","","","NA","74.2","23.6"
"-110.717","50.025","MEDICINE HAT RCS","3034485","AB","16.4","0","NA","31.9","0","3.0","0","","","NA","13.7","0","NA","","3","","","NA","73.1","23.7"
"-113.349","50.673","MOSSLEIGH AGCM","3034577","AB","12.3","4","NA","30.5","4","-2.5","4","","","NA","22.1","5","NA","","3","","","NA","150.1","1.2"
"-114.099","51.369","NIER AGDM","3034795","AB","11.7","2","NA","27.8","2","-2.8","2","","","NA","13.4","2","NA","","5","","","NA","179.0","1.3"
"-113.997","49.521","PINCHER CREEK","3035198","AB","12.4","0","NA","27.3","0","-0.4","0","","","NA","59.4","0","NA","","4","","","NA","170.6","3.5"
"-114.005","49.522","PINCHER CREEK CLIMATE","3035208","AB","12.5","3","NA","27.1","3","-0.1","3","","","NA","10.8","3","NA","","2","","","NA","150.9","3.4"
"-112.983","50.606","QUEENSTOWN","3035340","AB","14.5","0","2.9","30.5","0","2.5","0","0.0","0","0.0","20.0","0","46.0","0.0","2","","","NA","116.2","12.3"
"-112.803","50.598","QUEENSTOWN","3035342","AB","14.5","3","NA","30.5","3","0.7","3","","","NA","20.0","3","NA","","3","","","NA","104.0","9.4"
"-112.117","50.367","RAINIER AGCM","3035355","AB","14.2","2","NA","30.8","2","-0.7","2","","","NA","12.8","2","NA","","2","","","NA","111.5","5.5"
"-111.213","50.099","RALSTON AGCM","3035362","AB","15.4","4","NA","31.3","4","0.7","4","","","NA","44.9","5","NA","","3","","","NA","86.0","18.6"
"-112.683","49.483","RAYMOND AGDM","3035422","AB","13.8","4","NA","31.3","4","-0.3","4","","","NA","20.7","8","NA","","3","","","NA","116.3","8.0"
"-111.701","50.265","ROLLING HILLS AGCM","3035530","AB","14.2","4","NA","31.0","4","-1.3","4","","","NA","52.8","4","NA","","3","","","NA","106.3","7.3"
"-112.050","50.833","ROSEMARY AGDM","3035650","AB","12.8","4","NA","31.2","4","-1.5","4","","","NA","9.7","5","NA","","3","","","NA","137.5","1.8"
"-110.917","49.917","SEVEN PERSONS AGDM","3035845","AB","15.2","4","NA","31.3","4","1.1","4","","","NA","55.7","5","NA","","3","","","NA","85.8","14.2"
"-110.215","50.732","SOCIAL PLAINS AGCM","3036040","AB","15.2","4","NA","31.2","4","-0.7","4","","","NA","54.1","4","NA","","3","","","NA","88.3","14.4"
"-112.982","51.228","STANDARD AGCM","3036086","AB","13.7","4","NA","30.2","4","0.9","4","","","NA","20.6","11","NA","","6","","","NA","117.4","5.9"
"-113.883","50.183","STAVELY AAFC","3036099","AB","12.8","0","NA","27.8","0","0.3","0","","","NA","40.7","0","NA","","4","","","NA","163.0","6.0"
"-113.283","51.033","STRATHMORE AGDM","3036205","AB","12.9","4","NA","28.9","4","1.1","4","","","NA","18.5","4","NA","","6","","","NA","136.1","2.2"
"-112.124","49.792","TABER","3036360","AB","15.6","18","NA","31.0","13","4.5","14","0.0","13","NA","13.4","13","NA","","2","","","NA","31.2","2.9"
"-111.321","50.456","TIDE LAKE AGCM","3036485","AB","14.6","4","NA","31.3","4","-2.3","4","","","NA","32.5","4","NA","","3","","","NA","97.6","9.3"
"-112.863","50.304","TRAVERS AGCM","3036500","AB","14.5","2","NA","29.5","2","2.4","2","","","NA","18.6","3","NA","","2","","","NA","112.0","13.5"
"-112.117","49.500","WRENTHAM AGDM","3037675","AB","14.4","2","NA","31.0","2","-2.1","2","","","NA","41.7","2","NA","","3","","","NA","113.0","11.3"
"-113.961","50.729","OKOTOKS","303M9JM","AB","13.2","0","1.8","30.0","0","-1.0","0","0.0","0","0.0","31.8","0","69.0","0.0","5","","","NA","146.4","3.0"
"-112.817","49.050","DEL BONITA AGDM","3042045","AB","12.7","2","NA","28.9","2","-1.2","2","","","NA","30.2","3","NA","","4","","","NA","152.8","3.4"
"-110.678","49.364","MANYBERRIES AGCM","3044203","AB","14.3","2","NA","31.7","2","-2.9","2","","","NA","11.5","2","NA","","5","","","NA","113.0","10.5"
"-111.652","49.137","MASINASIN AGDM","3044232","AB","15.0","2","NA","31.0","2","1.5","2","","","NA","12.8","5","NA","","2","","","NA","97.8","15.0"
"-112.050","49.133","MILK RIVER","3044533","AB","13.7","3","NA","31.2","3","-2.1","3","","","NA","9.6","20","NA","","3","","","NA","119.0","3.4"
"-110.467","49.117","ONEFOUR CDA","3044923","AB","15.3","4","NA","32.0","4","0.8","4","","","NA","14.4","4","NA","1.0","4","","","NA","79.8","8.4"
"-111.126","49.225","PAKOWKI LAKE AGCM","3045000","AB","15.0","2","NA","31.8","2","0.0","2","","","NA","9.7","3","NA","","5","","","NA","95.1","11.6"
"-111.025","49.029","PINHORN AGCM","3045100","AB","14.8","4","NA","30.7","4","1.4","4","","","NA","13.4","5","NA","","5","","","NA","98.1","14.7"
"-112.160","49.283","WARNER AGCM","3046951","AB","14.2","4","NA","30.8","4","0.9","4","","","NA","13.2","11","NA","","2","","","NA","110.3","10.3"
"-115.552","51.193","BANFF CS","3050519","AB","10.3","2","NA","25.6","2","-3.4","2","","","NA","49.9","2","NA","","9","","","NA","214.6","0.0"
"-114.175","49.468","BEAVER MINES","3050602","AB","11.7","1","NA","26.1","1","-0.8","1","","","NA","54.2","1","NA","4.0","5","","","NA","187.4","3.9"
"-115.067","51.083","BOW VALLEY","3050778","AB","11.6","2","NA","28.0","2","-3.4","2","","","NA","45.0","2","NA","","6","","","NA","184.1","5.3"
"-114.482","49.628","CROWSNEST","3051R4R","AB","10.4","1","NA","25.0","1","-1.6","1","","","NA","36.2","7","NA","","4","","","NA","221.3","0.5"
"-118.030","52.926","JASPER WARDEN","3053536","AB","10.2","0","NA","27.6","0","-3.5","0","","","NA","29.8","0","NA","","9","","","NA","233.7","0.0"
"-115.035","51.028","KANANASKIS","3053600","AB","11.5","1","2.1","28.5","1","-3.0","1","2.0","1","NA","36.2","1","NA","0.0","5","","","NA","193.4","4.5"
"-116.040","52.492","NORDEGG CS","3054843","AB","9.8","2","NA","27.0","2","-4.4","2","","","NA","19.1","2","NA","","6","","","NA","231.9","1.5"
"-114.416","50.368","PEKISKO","3055119","AB","11.0","3","NA","27.8","3","-3.4","3","","","NA","23.6","4","NA","","6","","","NA","192.0","2.9"
"-113.809","49.131","WATERTON PARK GATE","3056214","AB","11.6","1","NA","26.7","1","-0.8","1","","","NA","46.3","1","NA","","5","","","NA","186.7","0.4"
"-115.787","54.144","WHITECOURT A","3057376","AB","11.1","0","NA","26.1","0","-0.7","0","","","NA","","","NA","","","","","NA","207.9","0.0"
"-115.190","50.943","NAKISKA RIDGETOP","305MGFF","AB","5.8","1","NA","17.0","1","-4.7","1","","","NA","","","NA","","","","","NA","354.0","0.0"
"-113.382","54.635","ATHABASCA AGCM","3060330","AB","11.5","4","NA","23.7","4","-0.7","4","","","NA","8.9","5","NA","","2","","","NA","169.4","0.0"
"-112.825","54.782","ATMORE AGDM","3060406","AB","10.5","2","NA","24.7","2","-2.1","2","","","NA","7.9","3","NA","","2","","","NA","208.7","0.0"
"-114.448","54.095","BARRHEAD CS","3060535","AB","11.6","0","NA","25.3","0","-0.4","0","","","NA","14.0","0","NA","2.0","5","","","NA","191.0","0.0"
"-117.867","53.350","BRULE BLACK CAT","3060903","AB","9.2","5","0.2","26.5","3","-4.5","4","0.0","1","NA","67.4","1","NA","0.0","8","","","NA","220.2","0.0"
"-114.678","54.131","CAMPSIE AUTO","3061201","AB","10.8","0","NA","24.6","0","-2.7","0","","","NA","8.3","0","NA","","3","","","NA","216.3","0.0"
"-115.894","53.623","CARROT CREEK","3061350","AB","10.0","4","NA","25.9","4","-3.9","4","","","NA","16.1","4","NA","","4","","","NA","209.2","0.0"
"-116.465","53.579","EDSON","3062239","AB","10.0","0","NA","26.2","0","-3.8","0","","","NA","29.7","0","NA","","6","","","NA","240.0","0.0"
"-116.453","53.580","EDSON CLIMATE","3062246","AB","10.2","0","NA","26.1","0","-3.3","0","","","NA","30.6","0","NA","0.0","6","","","NA","235.4","0.0"
"-114.983","53.600","ENTWISTLE","3062451","AB","12.7","1","1.9","26.0","1","-2.0","1","0.0","1","NA","17.0","1","NA","0.0","6","","","NA","153.5","1.0"
"-115.062","53.614","EVANSBURG2 AGCM","3062476","AB","9.5","5","NA","24.8","5","-4.9","5","","","NA","5.4","5","NA","","1","","","NA","212.3","0.0"
"-114.769","54.410","FORT ASSINIBOINE AGCM","3062660","AB","10.9","2","NA","24.7","2","-2.2","2","","","NA","6.4","2","NA","","2","","","NA","198.7","0.0"
"-111.213","56.651","FORT MCMURRAY CS","3062696","AB","12.9","1","NA","26.4","1","-0.8","1","","","NA","9.6","4","NA","","2","","","NA","149.1","1.5"
"-111.223","56.653","FORT MCMURRAY A","3062697","AB","13.1","2","NA","26.5","2","-0.2","2","","","NA","21.4","2","NA","","9","","","NA","139.4","1.5"
"-118.447","53.795","HENDRICKSON CREEK","3063135","AB","6.7","0","NA","24.9","0","-7.3","0","","","NA","33.0","0","NA","1.0","7","","","NA","337.6","0.0"
"-116.479","55.396","HIGH PRAIRIE AGDM","3063165","AB","11.1","4","NA","27.2","4","-2.8","4","","","NA","8.0","6","NA","","3","","","NA","180.6","0.0"
"-113.543","54.821","ISLAND LAKE SOUTH","3063600","AB","11.9","0","NA","24.8","0","-1.4","0","","","NA","9.2","0","NA","","4","","","NA","182.3","0.0"
"-112.981","54.563","KINIKINIK","3063640","AB","12.1","4","NA","24.2","4","0.9","4","","","NA","7.0","4","NA","","2","","","NA","153.9","0.0"
"-112.024","54.769","LAC LA BICHE CLIMATE","3063686","AB","12.3","0","NA","25.0","0","0.2","0","","","NA","4.8","0","NA","","2","","","NA","172.5","0.9"
"-113.321","54.964","PLEASANT VIEW","3065200","AB","11.5","4","NA","23.5","4","1.2","4","","","NA","12.7","4","NA","","2","","","NA","169.0","0.0"
"-111.700","54.500","RICH LAKE AGDM","3065475","AB","10.5","4","NA","23.2","4","-2.6","4","","","NA","7.6","5","NA","","2","","","NA","195.1","0.0"
"-111.835","53.851","ISPAS","3065712","AB","12.4","2","NA","25.6","2","-0.5","2","","","NA","4.8","3","NA","","2","","","NA","156.8","0.0"
"-114.777","55.293","SLAVE LAKE","3065995","AB","11.8","0","NA","25.8","0","-0.1","0","","","NA","18.4","0","NA","","3","","","NA","186.8","0.9"
"-114.777","55.293","SLAVE LAKE RCS","3065997","AB","11.5","0","NA","25.7","0","-0.1","0","","","NA","14.7","0","NA","","2","","","NA","194.6","0.5"
"-113.520","54.300","TAWATINAW AGCM","3066367","AB","11.9","3","NA","25.2","3","0.3","3","","","NA","12.4","3","NA","","2","","","NA","164.9","0.0"
"-118.348","53.386","WILLOW CREEK 1","306GE70","AB","7.2","6","NA","24.5","6","-5.9","6","","","NA","44.2","7","NA","","8","","","NA","258.3","0.0"
"-113.941","54.683","DUCK LAKE AGCM","306X001","AB","10.1","2","NA","24.3","2","-3.0","2","","","NA","10.1","5","NA","","3","","","NA","222.6","0.0"
"-117.236","55.577","BALLATER AGCM","3070495","AB","11.9","2","NA","27.9","2","-1.8","2","","","NA","2.6","2","NA","","2","","","NA","171.2","0.0"
"-119.396","55.197","BEAVERLODGE RCS","3070600","AB","11.1","0","NA","27.0","0","-1.6","0","","","NA","9.3","0","NA","0.0","3","","","NA","207.2","0.0"
"-117.886","56.118","BROWNVALE AGCM","3070800","AB","11.5","2","NA","27.2","2","-2.7","2","","","NA","14.2","2","NA","","1","","","NA","181.6","0.0"
"-117.933","56.529","CLEAR HILLS AGCM","3071661","AB","10.8","4","NA","25.7","4","-2.6","4","","","NA","5.4","6","NA","","2","","","NA","187.7","0.0"
"-117.543","56.715","DEADWOOD AGCM","3071957","AB","12.5","2","NA","26.7","2","-1.1","2","","","NA","4.1","3","NA","","2","","","NA","152.7","0.0"
"-117.887","55.808","EAGLESHAM AGCM","3072151","AB","12.0","2","NA","27.3","2","-0.9","2","","","NA","5.8","2","NA","","3","","","NA","166.8","0.0"
"-110.439","58.981","EGG ISLAND","3072246","AB","14.1","17","NA","20.7","16","7.0","17","","","NA","","","NA","","","","","NA","50.1","0.0"
"-118.439","56.081","FAIRVIEW AGDM","3072525","AB","11.2","4","NA","27.1","4","-2.7","4","","","NA","3.8","6","NA","","2","","","NA","176.9","0.0"
"-111.117","58.767","FORT CHIPEWYAN","3072655","AB","13.2","1","NA","26.5","1","1.1","1","","","NA","12.8","1","NA","","4","","","NA","144.7","5.7"
"-111.117","58.767","FORT CHIPEWYAN RCS","3072659","AB","13.2","0","NA","27.2","0","1.2","0","","","NA","10.5","0","NA","","4","","","NA","150.9","6.2"
"-116.040","58.382","FORT VERMILION","3072723","AB","12.6","0","NA","27.3","0","1.3","0","","","NA","20.1","0","NA","0.0","5","","","NA","162.4","0.8"
"-118.885","55.180","GRANDE PRAIRIE A","3072921","AB","11.2","0","NA","27.5","0","-1.4","0","0.0","0","NA","18.0","0","NA","","4","","","NA","204.0","0.3"
"-117.298","57.265","HAWK HILLS AGCM","3073071","AB","12.2","4","NA","26.5","4","0.7","4","","","NA","6.8","4","NA","","1","","","NA","151.2","0.0"
"-117.165","58.622","HIGH LEVEL A","3073140","AB","11.3","1","NA","27.1","1","-0.9","1","","","NA","41.1","0","NA","","8","","","NA","194.7","0.0"
"-117.164","58.631","HIGH LEVEL","3073148","AB","10.4","3","NA","27.1","3","-3.5","3","","","NA","17.2","3","NA","1.0","4","","","NA","205.2","0.0"
"-117.120","55.913","JEAN COTE AGCM","3073535","AB","11.9","6","NA","26.9","6","-0.5","6","","","NA","1.3","6","NA","","0","","","NA","147.2","0.0"
"-117.677","57.788","KEG RIVER AGCM","3073644","AB","11.9","2","NA","27.8","2","-1.8","2","","","NA","9.1","2","NA","","1","","","NA","172.1","0.0"
"-116.343","58.172","LA CRETE AGCM","3073730","AB","12.7","4","NA","27.0","4","1.1","4","","","NA","8.4","5","NA","","2","","","NA","139.9","2.2"
"-119.255","55.422","LA GLACE AGCM","3073740","AB","9.9","4","NA","27.1","4","-3.4","4","","","NA","3.7","13","NA","","1","","","NA","211.4","0.0"
"-117.451","56.974","MANNING AGDM","3074190","AB","11.9","4","NA","26.9","4","-1.1","4","","","NA","","","NA","","","","","NA","158.8","0.0"
"-119.745","56.314","CLEARDALE AGDM","3074935","AB","11.7","2","NA","27.0","2","-1.5","2","","","NA","11.2","2","NA","","3","","","NA","177.8","0.0"
"-117.448","56.227","PEACE RIVER A","3075041","AB","11.1","0","NA","26.2","0","-1.6","0","0.0","0","NA","23.3","0","NA","","1","","","NA","208.2","0.0"
"-117.452","56.193","ROMA","3075043","AB","12.0","0","NA","26.6","0","0.2","0","","","NA","11.5","0","NA","0.0","2","","","NA","179.3","0.0"
"-118.293","55.621","PEORIA AGDM","3075160","AB","11.1","2","NA","26.7","2","-4.3","2","","","NA","8.7","6","NA","","3","","","NA","192.9","0.0"
"-115.278","56.552","RED EARTH","3075488","AB","11.9","0","NA","25.4","0","-0.1","0","","","NA","","","NA","","","","","NA","182.3","0.0"
"-116.481","58.452","ROCKY LANE AGCM","3075550","AB","11.6","4","NA","27.9","4","-1.0","4","","","NA","13.3","5","NA","","4","","","NA","165.5","0.0"
"-118.668","55.777","RYCROFT AGCM","3075601","AB","12.3","2","NA","28.2","2","-2.8","2","","","NA","8.9","2","NA","","4","","","NA","159.6","0.0"
"-119.345","56.076","SAVANNA AGCM","3075770","AB","11.7","10","NA","27.3","10","-1.8","10","","","NA","3.7","10","NA","","1","","","NA","125.5","0.0"
"-111.997","58.853","SWEETGRASS LANDING","3076330","AB","","","NA","","","","","","","NA","16.8","2","NA","","3","","","NA","",""
"-118.408","55.352","TEEPEE CREEK AGCM","3076366","AB","10.5","4","NA","27.6","4","-4.3","4","","","NA","0.4","4","NA","","0","","","NA","194.7","0.0"
"-116.848","58.021","TOMPKINS LANDING AGCM","3076530","AB","12.7","4","NA","26.9","4","1.2","4","","","NA","7.6","5","NA","","1","","","NA","137.6","0.8"
"-117.199","55.098","VALLEYVIEW AGDM","3076680","AB","11.7","2","NA","27.6","2","-1.3","2","","","NA","11.7","7","NA","","4","","","NA","177.2","0.0"
"-113.866","58.711","GARDEN RIVER","307KPFP","AB","13.0","0","NA","30.0","0","0.2","0","","","NA","12.2","1","NA","","2","","","NA","152.6","2.6"
"-110.283","54.417","COLD LAKE A","3081680","AB","12.0","0","1.5","24.6","0","-1.7","0","0.0","0","0.0","13.4","0","34.0","","5","","","NA","180.4","0.8"
"-110.868","54.367","DUPRE AGCM","3081690","AB","11.5","12","NA","24.5","12","0.7","12","","","NA","5.6","13","NA","","2","","","NA","116.3","0.0"
"-110.323","54.177","BEAVERDAM AGCM","308X001","AB","11.6","2","NA","24.7","2","-2.2","2","","","NA","21.5","4","NA","0.0","4","","","NA","180.0","0.7"
